[
    {
        "latitude": "43.062222",
        "longitude": "141.354167",
        "id": "01101010",
        "bureauName": "センター",
        "location": "札幌市中央区北１西２",
        "measuringStationType": "一般局",
        "contactInformation": "札幌市",
        "prefectureCode": "01"
    },
    {
        "latitude": "43.062222",
        "longitude": "141.353889",
        "id": "01101520",
        "bureauName": "北１条",
        "location": "札幌市中央区北１西２",
        "measuringStationType": "自排局",
        "contactInformation": "札幌市",
        "prefectureCode": "01"
    },
    {
        "latitude": "43.041111",
        "longitude": "141.343889",
        "id": "01101540",
        "bureauName": "南１４条",
        "location": "札幌市中央区南１４条西１０丁目",
        "measuringStationType": "自排局",
        "contactInformation": "札幌市",
        "prefectureCode": "01"
    },
    {
        "latitude": "43.146944",
        "longitude": "141.371389",
        "id": "01102010",
        "bureauName": "篠路",
        "location": "札幌市北区篠路４－９",
        "measuringStationType": "一般局",
        "contactInformation": "札幌市",
        "prefectureCode": "01"
    },
    {
        "latitude": "43.083611",
        "longitude": "141.358333",
        "id": "01103010",
        "bureauName": "東",
        "location": "札幌市東区北１８東５",
        "measuringStationType": "一般局",
        "contactInformation": "札幌市",
        "prefectureCode": "01"
    },
    {
        "latitude": "43.104167",
        "longitude": "141.373611",
        "id": "01103520",
        "bureauName": "東１８丁目",
        "location": "札幌市東区北３３東１８",
        "measuringStationType": "自排局",
        "contactInformation": "札幌市",
        "prefectureCode": "01"
    },
    {
        "latitude": "43.068611",
        "longitude": "141.414444",
        "id": "01104030",
        "bureauName": "北白石",
        "location": "札幌市白石区菊水元町８－３",
        "measuringStationType": "一般局",
        "contactInformation": "札幌市",
        "prefectureCode": "01"
    },
    {
        "latitude": "43.023889",
        "longitude": "141.427500",
        "id": "01105010",
        "bureauName": "東月寒",
        "location": "札幌市豊平区月寒東４－１８",
        "measuringStationType": "一般局",
        "contactInformation": "札幌市",
        "prefectureCode": "01"
    },
    {
        "latitude": "43.031667",
        "longitude": "141.395833",
        "id": "01105520",
        "bureauName": "月寒中央",
        "location": "札幌市豊平区月寒中央通７丁目",
        "measuringStationType": "自排局",
        "contactInformation": "札幌市",
        "prefectureCode": "01"
    },
    {
        "latitude": "43.088611",
        "longitude": "141.285833",
        "id": "01107020",
        "bureauName": "発寒",
        "location": "札幌市西区発寒５－７",
        "measuringStationType": "一般局",
        "contactInformation": "札幌市",
        "prefectureCode": "01"
    },
    {
        "latitude": "43.123333",
        "longitude": "141.245000",
        "id": "01107030",
        "bureauName": "手稲",
        "location": "札幌市手稲区前田２－１２",
        "measuringStationType": "一般局",
        "contactInformation": "札幌市",
        "prefectureCode": "01"
    },
    {
        "latitude": "43.041944",
        "longitude": "141.464722",
        "id": "01108010",
        "bureauName": "厚別",
        "location": "札幌市厚別区厚別中央４－３",
        "measuringStationType": "一般局",
        "contactInformation": "札幌市",
        "prefectureCode": "01"
    },
    {
        "latitude": "38.298333",
        "longitude": "140.947778",
        "id": "04201020",
        "bureauName": "岩切",
        "location": "仙台市宮城野区岩切字三所南８８－１",
        "measuringStationType": "一般局",
        "contactInformation": "仙台市",
        "prefectureCode": "04"
    },
    {
        "latitude": "38.287778",
        "longitude": "140.914444",
        "id": "04201030",
        "bureauName": "鶴谷",
        "location": "仙台市宮城野区鶴ヶ谷３－１７－１",
        "measuringStationType": "一般局",
        "contactInformation": "仙台市",
        "prefectureCode": "04"
    },
    {
        "latitude": "38.216389",
        "longitude": "140.893333",
        "id": "04201050",
        "bureauName": "長町",
        "location": "仙台市太白区郡山６－５－１",
        "measuringStationType": "一般局",
        "contactInformation": "仙台市",
        "prefectureCode": "04"
    },
    {
        "latitude": "38.293056",
        "longitude": "140.842778",
        "id": "04201060",
        "bureauName": "中山",
        "location": "仙台市青葉区中山６－１６－１",
        "measuringStationType": "一般局",
        "contactInformation": "仙台市",
        "prefectureCode": "04"
    },
    {
        "latitude": "38.264722",
        "longitude": "140.976389",
        "id": "04201070",
        "bureauName": "中野",
        "location": "仙台市宮城野区白鳥1-32-1",
        "measuringStationType": "一般局",
        "contactInformation": "仙台市",
        "prefectureCode": "04"
    },
    {
        "latitude": "38.237778",
        "longitude": "140.946389",
        "id": "04201080",
        "bureauName": "七郷",
        "location": "仙台市若林区荒井字堀添５３－２",
        "measuringStationType": "一般局",
        "contactInformation": "仙台市",
        "prefectureCode": "04"
    },
    {
        "latitude": "38.277222",
        "longitude": "140.973889",
        "id": "04201210",
        "bureauName": "福室",
        "location": "仙台市宮城野区福室５－１６－１",
        "measuringStationType": "一般局",
        "contactInformation": "仙台市",
        "prefectureCode": "04"
    },
    {
        "latitude": "38.217778",
        "longitude": "140.831111",
        "id": "04201220",
        "bureauName": "山田",
        "location": "仙台市太白区山田北前町３６－１",
        "measuringStationType": "一般局",
        "contactInformation": "仙台市",
        "prefectureCode": "04"
    },
    {
        "latitude": "38.256667",
        "longitude": "140.901944",
        "id": "04201230",
        "bureauName": "榴岡",
        "location": "仙台市宮城野区五輪１－２－３",
        "measuringStationType": "一般局",
        "contactInformation": "仙台市",
        "prefectureCode": "04"
    },
    {
        "latitude": "38.264444",
        "longitude": "140.914444",
        "id": "04201540",
        "bureauName": "苦竹",
        "location": "仙台市宮城野区原町３ー７",
        "measuringStationType": "自排局",
        "contactInformation": "仙台市",
        "prefectureCode": "04"
    },
    {
        "latitude": "38.268056",
        "longitude": "140.866667",
        "id": "04201550",
        "bureauName": "木町",
        "location": "仙台市青葉区木町通１－７－３６",
        "measuringStationType": "自排局",
        "contactInformation": "仙台市",
        "prefectureCode": "04"
    },
    {
        "latitude": "38.248056",
        "longitude": "140.884722",
        "id": "04201560",
        "bureauName": "五橋",
        "location": "仙台市若林区清水小路３－１",
        "measuringStationType": "自排局",
        "contactInformation": "仙台市",
        "prefectureCode": "04"
    },
    {
        "latitude": "38.311944",
        "longitude": "141.025556",
        "id": "04203010",
        "bureauName": "塩釜",
        "location": "塩竃市旭町1-1",
        "measuringStationType": "一般局",
        "contactInformation": "宮城県",
        "prefectureCode": "04"
    },
    {
        "latitude": "38.313333",
        "longitude": "141.031389",
        "id": "04203510",
        "bureauName": "塩釜自排",
        "location": "塩竃市中の島１－９",
        "measuringStationType": "自排局",
        "contactInformation": "宮城県",
        "prefectureCode": "04"
    },
    {
        "latitude": "38.556944",
        "longitude": "140.978611",
        "id": "04204020",
        "bureauName": "古川2",
        "location": "大崎市古川旭４－１－１",
        "measuringStationType": "一般局",
        "contactInformation": "宮城県",
        "prefectureCode": "04"
    },
    {
        "latitude": "38.568333",
        "longitude": "140.981944",
        "id": "04204510",
        "bureauName": "古川自排",
        "location": "大崎市李埣３－１－３",
        "measuringStationType": "自排局",
        "contactInformation": "宮城県",
        "prefectureCode": "04"
    },
    {
        "latitude": "38.900000",
        "longitude": "141.574167",
        "id": "04205020",
        "bureauName": "気仙沼",
        "location": "気仙沼市笹ヶ陣３－１",
        "measuringStationType": "一般局",
        "contactInformation": "宮城県",
        "prefectureCode": "04"
    },
    {
        "latitude": "37.999444",
        "longitude": "140.620278",
        "id": "04206010",
        "bureauName": "白石",
        "location": "白石市南町１－２－７９",
        "measuringStationType": "一般局",
        "contactInformation": "宮城県",
        "prefectureCode": "04"
    },
    {
        "latitude": "38.171111",
        "longitude": "140.893333",
        "id": "04207510",
        "bureauName": "名取自排",
        "location": "名取市増田５－１８－３２",
        "measuringStationType": "自排局",
        "contactInformation": "宮城県",
        "prefectureCode": "04"
    },
    {
        "latitude": "38.108056",
        "longitude": "140.870833",
        "id": "04211010",
        "bureauName": "岩沼",
        "location": "岩沼市中央３丁目１－１３",
        "measuringStationType": "一般局",
        "contactInformation": "宮城県",
        "prefectureCode": "04"
    },
    {
        "latitude": "38.055278",
        "longitude": "140.768889",
        "id": "04323010",
        "bureauName": "柴田",
        "location": "柴田郡柴田町船岡中央２－３－４５",
        "measuringStationType": "一般局",
        "contactInformation": "宮城県",
        "prefectureCode": "04"
    },
    {
        "latitude": "37.854167",
        "longitude": "140.823056",
        "id": "04341010",
        "bureauName": "丸森",
        "location": "伊具郡丸森町大内字南平１９３－６",
        "measuringStationType": "一般局",
        "contactInformation": "宮城県",
        "prefectureCode": "04"
    },
    {
        "latitude": "38.387222",
        "longitude": "141.076389",
        "id": "04401010",
        "bureauName": "松島",
        "location": "宮城郡松島町高城字迎山３－５",
        "measuringStationType": "一般局",
        "contactInformation": "宮城県",
        "prefectureCode": "04"
    },
    {
        "latitude": "38.330278",
        "longitude": "140.982222",
        "id": "04406010",
        "bureauName": "利府",
        "location": "宮城郡利府町中央2-４",
        "measuringStationType": "一般局",
        "contactInformation": "宮城県",
        "prefectureCode": "04"
    },
    {
        "latitude": "38.443611",
        "longitude": "140.890556",
        "id": "04421010",
        "bureauName": "大和",
        "location": "黒川郡大和町吉岡字町裏３２",
        "measuringStationType": "一般局",
        "contactInformation": "宮城県",
        "prefectureCode": "04"
    },
    {
        "latitude": "38.550556",
        "longitude": "141.175556",
        "id": "04501010",
        "bureauName": "国設箟岳",
        "location": "遠田郡涌谷町小塚字桜清水二1-5",
        "measuringStationType": "一般局",
        "contactInformation": "宮城県",
        "prefectureCode": "04"
    },
    {
        "latitude": "38.735000",
        "longitude": "141.020833",
        "id": "04521010",
        "bureauName": "築館",
        "location": "栗原市築館藤木５－１",
        "measuringStationType": "一般局",
        "contactInformation": "宮城県",
        "prefectureCode": "04"
    },
    {
        "latitude": "38.688611",
        "longitude": "141.213889",
        "id": "04541010",
        "bureauName": "迫",
        "location": "登米市迫町佐沼字北散田１４７",
        "measuringStationType": "一般局",
        "contactInformation": "宮城県",
        "prefectureCode": "04"
    },
    {
        "latitude": "38.421111",
        "longitude": "141.219167",
        "id": "04562020",
        "bureauName": "矢本２",
        "location": "東松島市矢本字町裏１５４",
        "measuringStationType": "一般局",
        "contactInformation": "宮城県",
        "prefectureCode": "04"
    },
    {
        "latitude": "38.267778",
        "longitude": "140.344444",
        "id": "06201090",
        "bureauName": "山形銅町",
        "location": "山形市銅町２－１０－８",
        "measuringStationType": "一般局",
        "contactInformation": "山形県",
        "prefectureCode": "06"
    },
    {
        "latitude": "38.266389",
        "longitude": "140.365278",
        "id": "06201510",
        "bureauName": "山形下山家",
        "location": "山形市下山家８１－５",
        "measuringStationType": "自排局",
        "contactInformation": "山形県",
        "prefectureCode": "06"
    },
    {
        "latitude": "37.916667",
        "longitude": "140.116944",
        "id": "06202010",
        "bureauName": "米沢金池",
        "location": "米沢市金池２－９",
        "measuringStationType": "一般局",
        "contactInformation": "山形県",
        "prefectureCode": "06"
    },
    {
        "latitude": "38.739167",
        "longitude": "139.826944",
        "id": "06203010",
        "bureauName": "鶴岡錦町",
        "location": "鶴岡市錦町6-60",
        "measuringStationType": "一般局",
        "contactInformation": "山形県",
        "prefectureCode": "06"
    },
    {
        "latitude": "38.910833",
        "longitude": "139.852222",
        "id": "06204050",
        "bureauName": "酒田若浜",
        "location": "酒田市若浜町１－４０",
        "measuringStationType": "一般局",
        "contactInformation": "山形県",
        "prefectureCode": "06"
    },
    {
        "latitude": "38.754167",
        "longitude": "140.301944",
        "id": "06205010",
        "bureauName": "新庄下田",
        "location": "新庄市下田町８－１",
        "measuringStationType": "一般局",
        "contactInformation": "山形県",
        "prefectureCode": "06"
    },
    {
        "latitude": "38.843889",
        "longitude": "139.906389",
        "id": "06422010",
        "bureauName": "余目",
        "location": "東田川郡庄内町大字余目字猿田８７",
        "measuringStationType": "一般局",
        "contactInformation": "山形県",
        "prefectureCode": "06"
    },
    {
        "latitude": "37.773333",
        "longitude": "140.493611",
        "id": "07201180",
        "bureauName": "古川",
        "location": "福島市古川44-2",
        "measuringStationType": "一般局",
        "contactInformation": "福島市",
        "prefectureCode": "07"
    },
    {
        "latitude": "37.737778",
        "longitude": "140.467500",
        "id": "07201190",
        "bureauName": "南町",
        "location": "福島市郷野目字向町17-2",
        "measuringStationType": "一般局",
        "contactInformation": "福島市",
        "prefectureCode": "07"
    },
    {
        "latitude": "37.764167",
        "longitude": "140.451111",
        "id": "07201200",
        "bureauName": "森合",
        "location": "福島市森合字中谷地4-4",
        "measuringStationType": "一般局",
        "contactInformation": "福島市",
        "prefectureCode": "07"
    },
    {
        "latitude": "37.491389",
        "longitude": "139.927222",
        "id": "07202070",
        "bureauName": "会津若松",
        "location": "会津若松市西栄町４－６１",
        "measuringStationType": "一般局",
        "contactInformation": "福島県",
        "prefectureCode": "07"
    },
    {
        "latitude": "37.388056",
        "longitude": "140.399167",
        "id": "07203130",
        "bureauName": "芳賀",
        "location": "郡山市芳賀２丁目６番１号",
        "measuringStationType": "一般局",
        "contactInformation": "郡山市",
        "prefectureCode": "07"
    },
    {
        "latitude": "37.387778",
        "longitude": "140.382500",
        "id": "07203140",
        "bureauName": "堤下",
        "location": "郡山市堤下町４ノ４",
        "measuringStationType": "一般局",
        "contactInformation": "郡山市",
        "prefectureCode": "07"
    },
    {
        "latitude": "37.444722",
        "longitude": "140.396389",
        "id": "07203150",
        "bureauName": "日和田",
        "location": "郡山市日和田町日向６０",
        "measuringStationType": "一般局",
        "contactInformation": "郡山市",
        "prefectureCode": "07"
    },
    {
        "latitude": "37.353611",
        "longitude": "140.367500",
        "id": "07203180",
        "bureauName": "安積",
        "location": "郡山市安積３－３７",
        "measuringStationType": "一般局",
        "contactInformation": "郡山市",
        "prefectureCode": "07"
    },
    {
        "latitude": "37.390000",
        "longitude": "140.343611",
        "id": "07203520",
        "bureauName": "台新",
        "location": "郡山市台新１－８０４",
        "measuringStationType": "自排局",
        "contactInformation": "郡山市",
        "prefectureCode": "07"
    },
    {
        "latitude": "36.891111",
        "longitude": "140.784722",
        "id": "07204020",
        "bureauName": "上中田",
        "location": "いわき市錦町重殿１５",
        "measuringStationType": "一般局",
        "contactInformation": "いわき市",
        "prefectureCode": "07"
    },
    {
        "latitude": "36.907778",
        "longitude": "140.778333",
        "id": "07204030",
        "bureauName": "花ノ井",
        "location": "いわき市錦町鬼越下６４",
        "measuringStationType": "一般局",
        "contactInformation": "いわき市",
        "prefectureCode": "07"
    },
    {
        "latitude": "36.933333",
        "longitude": "140.866111",
        "id": "07204070",
        "bureauName": "下川",
        "location": "いわき市泉町下川字宿ノ川１９",
        "measuringStationType": "一般局",
        "contactInformation": "いわき市",
        "prefectureCode": "07"
    },
    {
        "latitude": "36.949722",
        "longitude": "140.871944",
        "id": "07204090",
        "bureauName": "滝尻",
        "location": "いわき市泉町滝尻字高見坪１",
        "measuringStationType": "一般局",
        "contactInformation": "いわき市",
        "prefectureCode": "07"
    },
    {
        "latitude": "36.960000",
        "longitude": "140.894722",
        "id": "07204110",
        "bureauName": "大原",
        "location": "いわき市小名浜大原字六反田２２",
        "measuringStationType": "一般局",
        "contactInformation": "いわき市",
        "prefectureCode": "07"
    },
    {
        "latitude": "36.943611",
        "longitude": "140.882222",
        "id": "07204160",
        "bureauName": "中原",
        "location": "いわき市小名浜字中原５－１",
        "measuringStationType": "一般局",
        "contactInformation": "いわき市",
        "prefectureCode": "07"
    },
    {
        "latitude": "36.925833",
        "longitude": "140.825000",
        "id": "07204170",
        "bureauName": "金山",
        "location": "いわき市金山町朝日台１",
        "measuringStationType": "一般局",
        "contactInformation": "いわき市",
        "prefectureCode": "07"
    },
    {
        "latitude": "37.055556",
        "longitude": "140.888889",
        "id": "07204210",
        "bureauName": "揚土",
        "location": "いわき市平字揚土５",
        "measuringStationType": "一般局",
        "contactInformation": "いわき市",
        "prefectureCode": "07"
    },
    {
        "latitude": "37.051389",
        "longitude": "140.897222",
        "id": "07204510",
        "bureauName": "平",
        "location": "いわき市平字正内町２２",
        "measuringStationType": "自排局",
        "contactInformation": "いわき市",
        "prefectureCode": "07"
    },
    {
        "latitude": "37.123889",
        "longitude": "140.205000",
        "id": "07205050",
        "bureauName": "白河",
        "location": "白河市寺小路28",
        "measuringStationType": "一般局",
        "contactInformation": "福島県",
        "prefectureCode": "07"
    },
    {
        "latitude": "37.636944",
        "longitude": "140.953889",
        "id": "07206050",
        "bureauName": "原町１",
        "location": "南相馬市仲町２丁目１６５",
        "measuringStationType": "一般局",
        "contactInformation": "福島県",
        "prefectureCode": "07"
    },
    {
        "latitude": "37.284167",
        "longitude": "140.375556",
        "id": "07207010",
        "bureauName": "須賀川",
        "location": "須賀川市大町１０８－１",
        "measuringStationType": "一般局",
        "contactInformation": "福島県",
        "prefectureCode": "07"
    },
    {
        "latitude": "37.801389",
        "longitude": "140.923333",
        "id": "07209080",
        "bureauName": "相馬１",
        "location": "相馬市中村字高池前４３",
        "measuringStationType": "一般局",
        "contactInformation": "福島県",
        "prefectureCode": "07"
    },
    {
        "latitude": "37.213333",
        "longitude": "140.996667",
        "id": "07541010",
        "bureauName": "広野１",
        "location": "双葉郡広野町大字下北迫字岩作６７－１",
        "measuringStationType": "一般局",
        "contactInformation": "福島県",
        "prefectureCode": "07"
    },
    {
        "latitude": "37.262778",
        "longitude": "140.993056",
        "id": "07542010",
        "bureauName": "楢葉",
        "location": "双葉郡楢葉町大字下小塙字麦入３１",
        "measuringStationType": "一般局",
        "contactInformation": "福島県",
        "prefectureCode": "07"
    },
    {
        "latitude": "37.355833",
        "longitude": "140.997222",
        "id": "07543010",
        "bureauName": "富岡",
        "location": "双葉郡富岡町字夜の森南４丁目４２",
        "measuringStationType": "一般局",
        "contactInformation": "福島県",
        "prefectureCode": "07"
    },
    {
        "latitude": "37.438333",
        "longitude": "141.009167",
        "id": "07546010",
        "bureauName": "双葉",
        "location": "双葉郡双葉町大字新山字清戸迫１",
        "measuringStationType": "一般局",
        "contactInformation": "福島県",
        "prefectureCode": "07"
    },
    {
        "latitude": "37.870556",
        "longitude": "140.917500",
        "id": "07561020",
        "bureauName": "新地１",
        "location": "相馬郡新地町谷地小屋字愛宕３７－２",
        "measuringStationType": "一般局",
        "contactInformation": "福島県",
        "prefectureCode": "07"
    },
    {
        "latitude": "37.561944",
        "longitude": "140.997222",
        "id": "07563010",
        "bureauName": "小高",
        "location": "南相馬市東町２丁目７８",
        "measuringStationType": "一般局",
        "contactInformation": "福島県",
        "prefectureCode": "07"
    },
    {
        "latitude": "36.388889",
        "longitude": "140.429722",
        "id": "08201030",
        "bureauName": "水戸石川",
        "location": "水戸市石川一丁目４０４３－８",
        "measuringStationType": "一般局",
        "contactInformation": "茨城県",
        "prefectureCode": "08"
    },
    {
        "latitude": "36.316667",
        "longitude": "140.502778",
        "id": "08201040",
        "bureauName": "水戸東部",
        "location": "水戸市元石川町２２９７－１",
        "measuringStationType": "一般局",
        "contactInformation": "茨城県",
        "prefectureCode": "08"
    },
    {
        "latitude": "36.377778",
        "longitude": "140.461389",
        "id": "08201510",
        "bureauName": "水戸大工町",
        "location": "水戸市大工町１－６",
        "measuringStationType": "自排局",
        "contactInformation": "茨城県",
        "prefectureCode": "08"
    },
    {
        "latitude": "36.596944",
        "longitude": "140.654722",
        "id": "08202020",
        "bureauName": "日立市役所",
        "location": "日立市宮田町１－４４－１",
        "measuringStationType": "一般局",
        "contactInformation": "茨城県",
        "prefectureCode": "08"
    },
    {
        "latitude": "36.554167",
        "longitude": "140.628889",
        "id": "08202050",
        "bureauName": "日立多賀",
        "location": "日立市末広町１－２",
        "measuringStationType": "一般局",
        "contactInformation": "茨城県",
        "prefectureCode": "08"
    },
    {
        "latitude": "36.067778",
        "longitude": "140.194167",
        "id": "08203010",
        "bureauName": "土浦保健所",
        "location": "土浦市下高津２－７－４６",
        "measuringStationType": "一般局",
        "contactInformation": "茨城県",
        "prefectureCode": "08"
    },
    {
        "latitude": "36.038333",
        "longitude": "140.168611",
        "id": "08203520",
        "bureauName": "土浦中村南",
        "location": "土浦市中村南１丁目１４１３番地－１",
        "measuringStationType": "自排局",
        "contactInformation": "茨城県",
        "prefectureCode": "08"
    },
    {
        "latitude": "36.200833",
        "longitude": "139.718889",
        "id": "08204010",
        "bureauName": "古河保健所",
        "location": "古河市北町６－２２",
        "measuringStationType": "一般局",
        "contactInformation": "茨城県",
        "prefectureCode": "08"
    },
    {
        "latitude": "36.199167",
        "longitude": "140.288611",
        "id": "08205020",
        "bureauName": "石岡杉並",
        "location": "石岡市杉並２－１－２",
        "measuringStationType": "一般局",
        "contactInformation": "茨城県",
        "prefectureCode": "08"
    },
    {
        "latitude": "36.306667",
        "longitude": "139.979444",
        "id": "08206010",
        "bureauName": "筑西保健所",
        "location": "筑西市甲１１４",
        "measuringStationType": "一般局",
        "contactInformation": "茨城県",
        "prefectureCode": "08"
    },
    {
        "latitude": "35.904167",
        "longitude": "140.196667",
        "id": "08208010",
        "bureauName": "竜ヶ崎保健所",
        "location": "龍ケ崎市光順田２９８３－１",
        "measuringStationType": "一般局",
        "contactInformation": "茨城県",
        "prefectureCode": "08"
    },
    {
        "latitude": "36.181389",
        "longitude": "139.963333",
        "id": "08210010",
        "bureauName": "下妻",
        "location": "下妻市下妻乙２０９",
        "measuringStationType": "一般局",
        "contactInformation": "茨城県",
        "prefectureCode": "08"
    },
    {
        "latitude": "36.030833",
        "longitude": "139.994722",
        "id": "08211010",
        "bureauName": "常総保健所",
        "location": "常総市水海道森下町４４７４",
        "measuringStationType": "一般局",
        "contactInformation": "茨城県",
        "prefectureCode": "08"
    },
    {
        "latitude": "36.521667",
        "longitude": "140.519722",
        "id": "08212010",
        "bureauName": "常陸太田",
        "location": "常陸太田市稲木町６６０",
        "measuringStationType": "一般局",
        "contactInformation": "茨城県",
        "prefectureCode": "08"
    },
    {
        "latitude": "36.393056",
        "longitude": "140.537500",
        "id": "08213010",
        "bureauName": "常陸那珂勝田",
        "location": "ひたちなか市東石川２－１０－１",
        "measuringStationType": "一般局",
        "contactInformation": "茨城県",
        "prefectureCode": "08"
    },
    {
        "latitude": "36.711944",
        "longitude": "140.714722",
        "id": "08214010",
        "bureauName": "高萩本町",
        "location": "高萩市本町２－３７",
        "measuringStationType": "一般局",
        "contactInformation": "茨城県",
        "prefectureCode": "08"
    },
    {
        "latitude": "36.778056",
        "longitude": "140.736944",
        "id": "08215010",
        "bureauName": "北茨城中郷",
        "location": "北茨城市中郷町上桜井５３－５",
        "measuringStationType": "一般局",
        "contactInformation": "茨城県",
        "prefectureCode": "08"
    },
    {
        "latitude": "36.382778",
        "longitude": "140.241944",
        "id": "08216010",
        "bureauName": "笠間市役所",
        "location": "笠間市石井７１７",
        "measuringStationType": "一般局",
        "contactInformation": "茨城県",
        "prefectureCode": "08"
    },
    {
        "latitude": "35.908333",
        "longitude": "140.052778",
        "id": "08217010",
        "bureauName": "取手市役所",
        "location": "取手市大字寺田５１３９",
        "measuringStationType": "一般局",
        "contactInformation": "茨城県",
        "prefectureCode": "08"
    },
    {
        "latitude": "36.101667",
        "longitude": "140.023611",
        "id": "08220010",
        "bureauName": "つくば高野",
        "location": "つくば市高野１１９７－２０",
        "measuringStationType": "一般局",
        "contactInformation": "茨城県",
        "prefectureCode": "08"
    },
    {
        "latitude": "36.381389",
        "longitude": "140.504444",
        "id": "08221010",
        "bureauName": "ひたちなか",
        "location": "ひたちなか市市毛８２３－１",
        "measuringStationType": "一般局",
        "contactInformation": "茨城県",
        "prefectureCode": "08"
    },
    {
        "latitude": "36.313889",
        "longitude": "140.423611",
        "id": "08302010",
        "bureauName": "東茨城大戸",
        "location": "東茨城郡茨城町大戸１７３７",
        "measuringStationType": "一般局",
        "contactInformation": "茨城県",
        "prefectureCode": "08"
    },
    {
        "latitude": "36.437222",
        "longitude": "140.593056",
        "id": "08341010",
        "bureauName": "常陸那珂東海",
        "location": "那珂郡東海村照沼１１４５",
        "measuringStationType": "一般局",
        "contactInformation": "茨城県",
        "prefectureCode": "08"
    },
    {
        "latitude": "36.558333",
        "longitude": "140.405833",
        "id": "08344010",
        "bureauName": "大宮野中",
        "location": "常陸大宮市野中町３０８３",
        "measuringStationType": "一般局",
        "contactInformation": "茨城県",
        "prefectureCode": "08"
    },
    {
        "latitude": "36.156111",
        "longitude": "140.521111",
        "id": "08402010",
        "bureauName": "鉾田保健所",
        "location": "鉾田市大字鉾田１３６７－３",
        "measuringStationType": "一般局",
        "contactInformation": "茨城県",
        "prefectureCode": "08"
    },
    {
        "latitude": "35.961667",
        "longitude": "140.625278",
        "id": "08405010",
        "bureauName": "鹿島宮中",
        "location": "鹿嶋市城山２－２－１９",
        "measuringStationType": "一般局",
        "contactInformation": "茨城県",
        "prefectureCode": "08"
    },
    {
        "latitude": "35.971667",
        "longitude": "140.659722",
        "id": "08405020",
        "bureauName": "鹿島高天原",
        "location": "鹿嶋市大字港ヶ丘２丁目１１５０－４１",
        "measuringStationType": "一般局",
        "contactInformation": "茨城県",
        "prefectureCode": "08"
    },
    {
        "latitude": "35.912500",
        "longitude": "140.630000",
        "id": "08406010",
        "bureauName": "神栖下幡木",
        "location": "神栖市大字下幡木４１３０",
        "measuringStationType": "一般局",
        "contactInformation": "茨城県",
        "prefectureCode": "08"
    },
    {
        "latitude": "35.895000",
        "longitude": "140.643611",
        "id": "08406030",
        "bureauName": "鹿島事務所",
        "location": "神栖市大野原４－７",
        "measuringStationType": "一般局",
        "contactInformation": "茨城県",
        "prefectureCode": "08"
    },
    {
        "latitude": "35.885556",
        "longitude": "140.670000",
        "id": "08406050",
        "bureauName": "神栖消防",
        "location": "神栖市大字溝口字甲の池４９９１－５",
        "measuringStationType": "一般局",
        "contactInformation": "茨城県",
        "prefectureCode": "08"
    },
    {
        "latitude": "35.867222",
        "longitude": "140.673611",
        "id": "08406060",
        "bureauName": "神栖一貫野",
        "location": "神栖市大字知手１００－３",
        "measuringStationType": "一般局",
        "contactInformation": "茨城県",
        "prefectureCode": "08"
    },
    {
        "latitude": "35.848889",
        "longitude": "140.706111",
        "id": "08406080",
        "bureauName": "神栖横瀬",
        "location": "神栖市大字横瀬８６６－１",
        "measuringStationType": "一般局",
        "contactInformation": "茨城県",
        "prefectureCode": "08"
    },
    {
        "latitude": "35.835000",
        "longitude": "140.743889",
        "id": "08407010",
        "bureauName": "波崎太田",
        "location": "神栖市大字須田２３４０－１",
        "measuringStationType": "一般局",
        "contactInformation": "茨城県",
        "prefectureCode": "08"
    },
    {
        "latitude": "35.936389",
        "longitude": "140.570833",
        "id": "08423040",
        "bureauName": "潮来保健所",
        "location": "潮来市大字大洲１４４６－１",
        "measuringStationType": "一般局",
        "contactInformation": "茨城県",
        "prefectureCode": "08"
    },
    {
        "latitude": "35.950556",
        "longitude": "140.322222",
        "id": "08441010",
        "bureauName": "江戸崎公民館",
        "location": "稲敷市江戸崎字大宿甲３２１３",
        "measuringStationType": "一般局",
        "contactInformation": "茨城県",
        "prefectureCode": "08"
    },
    {
        "latitude": "36.175833",
        "longitude": "139.758889",
        "id": "08541010",
        "bureauName": "古河市役所",
        "location": "古河市下大野谷地川２４５６",
        "measuringStationType": "一般局",
        "contactInformation": "茨城県",
        "prefectureCode": "08"
    },
    {
        "latitude": "35.947500",
        "longitude": "139.980278",
        "id": "08561510",
        "bureauName": "守谷",
        "location": "守谷市大柏９３７－２",
        "measuringStationType": "自排局",
        "contactInformation": "茨城県",
        "prefectureCode": "08"
    },
    {
        "latitude": "36.484444",
        "longitude": "139.867222",
        "id": "09201060",
        "bureauName": "雀宮中学校",
        "location": "宇都宮市雀宮７丁目２８番１６号",
        "measuringStationType": "一般局",
        "contactInformation": "宇都宮市",
        "prefectureCode": "09"
    },
    {
        "latitude": "36.504722",
        "longitude": "139.945833",
        "id": "09201070",
        "bureauName": "瑞穂野北小学校",
        "location": "宇都宮市下桑島町４６５",
        "measuringStationType": "一般局",
        "contactInformation": "宇都宮市",
        "prefectureCode": "09"
    },
    {
        "latitude": "36.587500",
        "longitude": "139.859722",
        "id": "09201080",
        "bureauName": "細谷小学校",
        "location": "宇都宮市細谷１丁目４番３８号",
        "measuringStationType": "一般局",
        "contactInformation": "宇都宮市",
        "prefectureCode": "09"
    },
    {
        "latitude": "36.563056",
        "longitude": "139.923333",
        "id": "09201100",
        "bureauName": "泉が丘小学校",
        "location": "宇都宮市泉が丘７－１２－１４",
        "measuringStationType": "一般局",
        "contactInformation": "宇都宮市",
        "prefectureCode": "09"
    },
    {
        "latitude": "36.531111",
        "longitude": "139.982778",
        "id": "09201110",
        "bureauName": "清原",
        "location": "宇都宮市上篭谷町１１４５",
        "measuringStationType": "一般局",
        "contactInformation": "宇都宮市",
        "prefectureCode": "09"
    },
    {
        "latitude": "36.556944",
        "longitude": "139.884444",
        "id": "09201120",
        "bureauName": "中央",
        "location": "宇都宮市中央１－１－１３",
        "measuringStationType": "一般局",
        "contactInformation": "宇都宮市",
        "prefectureCode": "09"
    },
    {
        "latitude": "36.558333",
        "longitude": "139.885833",
        "id": "09201570",
        "bureauName": "大通り",
        "location": "宇都宮市馬場通り１－１－１１",
        "measuringStationType": "自排局",
        "contactInformation": "宇都宮市",
        "prefectureCode": "09"
    },
    {
        "latitude": "36.337222",
        "longitude": "139.452778",
        "id": "09202010",
        "bureauName": "足利市役所",
        "location": "足利市本城３－２１４５",
        "measuringStationType": "一般局",
        "contactInformation": "栃木県",
        "prefectureCode": "09"
    },
    {
        "latitude": "36.379167",
        "longitude": "139.733889",
        "id": "09203010",
        "bureauName": "栃木市役所",
        "location": "栃木市入舟町７－２６",
        "measuringStationType": "一般局",
        "contactInformation": "栃木県",
        "prefectureCode": "09"
    },
    {
        "latitude": "36.391389",
        "longitude": "139.782222",
        "id": "09203520",
        "bureauName": "栃木市平柳町交差点",
        "location": "栃木市平柳町２丁目",
        "measuringStationType": "自排局",
        "contactInformation": "栃木県",
        "prefectureCode": "09"
    },
    {
        "latitude": "36.564167",
        "longitude": "139.747500",
        "id": "09205010",
        "bureauName": "鹿沼市役所",
        "location": "鹿沼市今宮町１６８８－１",
        "measuringStationType": "一般局",
        "contactInformation": "栃木県",
        "prefectureCode": "09"
    },
    {
        "latitude": "36.565000",
        "longitude": "139.759167",
        "id": "09205510",
        "bureauName": "鹿沼市府所歩道橋",
        "location": "鹿沼市府所本町２丁目",
        "measuringStationType": "自排局",
        "contactInformation": "栃木県",
        "prefectureCode": "09"
    },
    {
        "latitude": "36.748889",
        "longitude": "139.615278",
        "id": "09206010",
        "bureauName": "日光市日光消防署",
        "location": "日光市石屋町408-1",
        "measuringStationType": "一般局",
        "contactInformation": "栃木県",
        "prefectureCode": "09"
    },
    {
        "latitude": "36.723333",
        "longitude": "139.683333",
        "id": "09207010",
        "bureauName": "日光市今市小学校",
        "location": "日光市今市５３１",
        "measuringStationType": "一般局",
        "contactInformation": "栃木県",
        "prefectureCode": "09"
    },
    {
        "latitude": "36.276111",
        "longitude": "139.805000",
        "id": "09208010",
        "bureauName": "小山市立大谷中学校",
        "location": "小山市横倉新田97",
        "measuringStationType": "一般局",
        "contactInformation": "栃木県",
        "prefectureCode": "09"
    },
    {
        "latitude": "36.312500",
        "longitude": "139.805278",
        "id": "09208510",
        "bureauName": "小山市中央町交差点",
        "location": "小山市城山町２丁目１－２６",
        "measuringStationType": "自排局",
        "contactInformation": "栃木県",
        "prefectureCode": "09"
    },
    {
        "latitude": "36.437222",
        "longitude": "140.015833",
        "id": "09209010",
        "bureauName": "真岡市役所",
        "location": "真岡市荒町５１９１",
        "measuringStationType": "一般局",
        "contactInformation": "栃木県",
        "prefectureCode": "09"
    },
    {
        "latitude": "36.438333",
        "longitude": "139.993333",
        "id": "09209510",
        "bureauName": "真岡市高間木歩道橋",
        "location": "真岡市熊倉町２－５－１",
        "measuringStationType": "自排局",
        "contactInformation": "栃木県",
        "prefectureCode": "09"
    },
    {
        "latitude": "36.867778",
        "longitude": "140.019444",
        "id": "09210010",
        "bureauName": "大田原市役所",
        "location": "大田原市本町１－４ー１",
        "measuringStationType": "一般局",
        "contactInformation": "栃木県",
        "prefectureCode": "09"
    },
    {
        "latitude": "36.803056",
        "longitude": "139.926944",
        "id": "09211010",
        "bureauName": "矢板市役所",
        "location": "矢板市本町５－４",
        "measuringStationType": "一般局",
        "contactInformation": "栃木県",
        "prefectureCode": "09"
    },
    {
        "latitude": "36.759722",
        "longitude": "139.946111",
        "id": "09211510",
        "bureauName": "矢板市大谷津歩道橋",
        "location": "矢板市片岡字沢橋２１６６－３９",
        "measuringStationType": "自排局",
        "contactInformation": "栃木県",
        "prefectureCode": "09"
    },
    {
        "latitude": "36.965278",
        "longitude": "140.057222",
        "id": "09212010",
        "bureauName": "那須塩原市黒磯保健センター",
        "location": "那須塩原市黒磯幸町８－１０",
        "measuringStationType": "一般局",
        "contactInformation": "栃木県",
        "prefectureCode": "09"
    },
    {
        "latitude": "36.440000",
        "longitude": "139.917778",
        "id": "09301010",
        "bureauName": "上三川町役場",
        "location": "河内郡上三川町しらさぎ１－１",
        "measuringStationType": "一般局",
        "contactInformation": "栃木県",
        "prefectureCode": "09"
    },
    {
        "latitude": "36.464722",
        "longitude": "140.096944",
        "id": "09342010",
        "bureauName": "益子町役場",
        "location": "芳賀郡益子町益子２０３０",
        "measuringStationType": "一般局",
        "contactInformation": "栃木県",
        "prefectureCode": "09"
    },
    {
        "latitude": "36.230278",
        "longitude": "139.744167",
        "id": "09364010",
        "bureauName": "野木町役場",
        "location": "下都賀郡野木町丸林６２９",
        "measuringStationType": "一般局",
        "contactInformation": "栃木県",
        "prefectureCode": "09"
    },
    {
        "latitude": "36.882222",
        "longitude": "139.715000",
        "id": "09383010",
        "bureauName": "日光市役所藤原行政センター",
        "location": "日光市鬼怒川温泉大原1406-1",
        "measuringStationType": "一般局",
        "contactInformation": "栃木県",
        "prefectureCode": "09"
    },
    {
        "latitude": "36.653889",
        "longitude": "140.153333",
        "id": "09402010",
        "bureauName": "県南那須庁舎",
        "location": "那須烏山市中央１－６－９２",
        "measuringStationType": "一般局",
        "contactInformation": "栃木県",
        "prefectureCode": "09"
    },
    {
        "latitude": "36.338056",
        "longitude": "139.012500",
        "id": "10202010",
        "bureauName": "高崎勤労ホーム駐車場",
        "location": "高崎市並榎町１１７－２０",
        "measuringStationType": "一般局",
        "contactInformation": "群馬県",
        "prefectureCode": "10"
    },
    {
        "latitude": "36.409444",
        "longitude": "139.343056",
        "id": "10203010",
        "bureauName": "桐生市立東小学校",
        "location": "桐生市仲町２－４－２１",
        "measuringStationType": "一般局",
        "contactInformation": "群馬県",
        "prefectureCode": "10"
    },
    {
        "latitude": "36.311111",
        "longitude": "139.197222",
        "id": "10204030",
        "bureauName": "伊勢崎市立南小学校",
        "location": "伊勢崎市上泉町３１０",
        "measuringStationType": "一般局",
        "contactInformation": "群馬県",
        "prefectureCode": "10"
    },
    {
        "latitude": "36.286667",
        "longitude": "139.384722",
        "id": "10205010",
        "bureauName": "太田市立中央小学校",
        "location": "太田市飯田町１１６６",
        "measuringStationType": "一般局",
        "contactInformation": "群馬県",
        "prefectureCode": "10"
    },
    {
        "latitude": "36.645833",
        "longitude": "139.042778",
        "id": "10206010",
        "bureauName": "沼田市立沼田小学校",
        "location": "沼田市西倉内町７４６",
        "measuringStationType": "一般局",
        "contactInformation": "群馬県",
        "prefectureCode": "10"
    },
    {
        "latitude": "36.249722",
        "longitude": "139.549167",
        "id": "10207010",
        "bureauName": "館林市民センター",
        "location": "館林市仲町１４－１",
        "measuringStationType": "一般局",
        "contactInformation": "群馬県",
        "prefectureCode": "10"
    },
    {
        "latitude": "36.495833",
        "longitude": "138.994167",
        "id": "10208010",
        "bureauName": "渋川第１測定局",
        "location": "渋川市渋川４２６－１",
        "measuringStationType": "一般局",
        "contactInformation": "群馬県",
        "prefectureCode": "10"
    },
    {
        "latitude": "36.259167",
        "longitude": "138.898333",
        "id": "10210010",
        "bureauName": "富岡市立富岡小学校",
        "location": "富岡市富岡１３５９",
        "measuringStationType": "一般局",
        "contactInformation": "群馬県",
        "prefectureCode": "10"
    },
    {
        "latitude": "36.320278",
        "longitude": "138.916944",
        "id": "10211010",
        "bureauName": "安中第１測定",
        "location": "安中市野殿１０２６－４",
        "measuringStationType": "一般局",
        "contactInformation": "群馬県",
        "prefectureCode": "10"
    },
    {
        "latitude": "36.326667",
        "longitude": "138.930833",
        "id": "10211040",
        "bureauName": "岩野谷公民館",
        "location": "安中市岩井６１７－１",
        "measuringStationType": "一般局",
        "contactInformation": "群馬県",
        "prefectureCode": "10"
    },
    {
        "latitude": "36.330556",
        "longitude": "138.896389",
        "id": "10211060",
        "bureauName": "安中市立安中小学校",
        "location": "安中市安中３－１０－４３",
        "measuringStationType": "一般局",
        "contactInformation": "群馬県",
        "prefectureCode": "10"
    },
    {
        "latitude": "36.577500",
        "longitude": "138.828611",
        "id": "10423010",
        "bureauName": "東吾妻町立東吾妻中学校",
        "location": "吾妻郡東吾妻町原町５２３０",
        "measuringStationType": "一般局",
        "contactInformation": "群馬県",
        "prefectureCode": "10"
    },
    {
        "latitude": "35.886944",
        "longitude": "139.489444",
        "id": "11201030",
        "bureauName": "川越市高階",
        "location": "川越市砂新田１－１５",
        "measuringStationType": "一般局",
        "contactInformation": "川越市",
        "prefectureCode": "11"
    },
    {
        "latitude": "35.924444",
        "longitude": "139.490278",
        "id": "11201040",
        "bureauName": "川越市川越",
        "location": "川越市宮下町２－７－４",
        "measuringStationType": "一般局",
        "contactInformation": "川越市",
        "prefectureCode": "11"
    },
    {
        "latitude": "35.916111",
        "longitude": "139.430000",
        "id": "11201050",
        "bureauName": "川越市霞ケ関",
        "location": "川越市伊勢原町５－４－５",
        "measuringStationType": "一般局",
        "contactInformation": "川越市",
        "prefectureCode": "11"
    },
    {
        "latitude": "35.903333",
        "longitude": "139.496111",
        "id": "11201510",
        "bureauName": "川越市仙波",
        "location": "川越市仙波町４－１８－１５",
        "measuringStationType": "自排局",
        "contactInformation": "川越市",
        "prefectureCode": "11"
    },
    {
        "latitude": "36.144722",
        "longitude": "139.391389",
        "id": "11202040",
        "bureauName": "熊谷",
        "location": "熊谷市宮町２－４７－１",
        "measuringStationType": "一般局",
        "contactInformation": "埼玉県",
        "prefectureCode": "11"
    },
    {
        "latitude": "36.160278",
        "longitude": "139.398333",
        "id": "11202510",
        "bureauName": "熊谷肥塚自排",
        "location": "熊谷市肥塚５９６－１",
        "measuringStationType": "自排局",
        "contactInformation": "埼玉県",
        "prefectureCode": "11"
    },
    {
        "latitude": "35.796667",
        "longitude": "139.751111",
        "id": "11203040",
        "bureauName": "川口市南平",
        "location": "川口市川口市東領家2-27-1",
        "measuringStationType": "一般局",
        "contactInformation": "川口市",
        "prefectureCode": "11"
    },
    {
        "latitude": "35.859167",
        "longitude": "139.649167",
        "id": "11204010",
        "bureauName": "さいたま市役所",
        "location": "さいたま市浦和区常盤６－４－４",
        "measuringStationType": "一般局",
        "contactInformation": "さいたま市",
        "prefectureCode": "11"
    },
    {
        "latitude": "35.902778",
        "longitude": "139.634167",
        "id": "11205120",
        "bureauName": "さいたま市大宮",
        "location": "さいたま市大宮区大門町３－３",
        "measuringStationType": "一般局",
        "contactInformation": "さいたま市",
        "prefectureCode": "11"
    },
    {
        "latitude": "36.137500",
        "longitude": "139.472500",
        "id": "11206020",
        "bureauName": "行田",
        "location": "行田市長野２－３－１７",
        "measuringStationType": "一般局",
        "contactInformation": "埼玉県",
        "prefectureCode": "11"
    },
    {
        "latitude": "35.985000",
        "longitude": "139.083611",
        "id": "11207010",
        "bureauName": "秩父",
        "location": "秩父市日野田町１－１－４４",
        "measuringStationType": "一般局",
        "contactInformation": "埼玉県",
        "prefectureCode": "11"
    },
    {
        "latitude": "35.800556",
        "longitude": "139.522500",
        "id": "11208060",
        "bureauName": "所沢市東所沢",
        "location": "所沢市東所沢３－２２－８",
        "measuringStationType": "一般局",
        "contactInformation": "所沢市",
        "prefectureCode": "11"
    },
    {
        "latitude": "35.782222",
        "longitude": "139.443056",
        "id": "11208070",
        "bureauName": "所沢市北野",
        "location": "所沢市小手指南1-25-15",
        "measuringStationType": "一般局",
        "contactInformation": "所沢市",
        "prefectureCode": "11"
    },
    {
        "latitude": "35.791944",
        "longitude": "139.474722",
        "id": "11208520",
        "bureauName": "所沢市航空公園",
        "location": "所沢市並木1-13",
        "measuringStationType": "自排局",
        "contactInformation": "所沢市",
        "prefectureCode": "11"
    },
    {
        "latitude": "35.802222",
        "longitude": "139.412500",
        "id": "11208530",
        "bureauName": "所沢市和ヶ原",
        "location": "所沢市和ヶ原1-175-7",
        "measuringStationType": "自排局",
        "contactInformation": "所沢市",
        "prefectureCode": "11"
    },
    {
        "latitude": "35.852222",
        "longitude": "139.331667",
        "id": "11209010",
        "bureauName": "飯能",
        "location": "飯能市双柳75",
        "measuringStationType": "一般局",
        "contactInformation": "埼玉県",
        "prefectureCode": "11"
    },
    {
        "latitude": "36.131667",
        "longitude": "139.608611",
        "id": "11210010",
        "bureauName": "加須",
        "location": "加須市北小浜１０６０－１",
        "measuringStationType": "一般局",
        "contactInformation": "埼玉県",
        "prefectureCode": "11"
    },
    {
        "latitude": "36.234444",
        "longitude": "139.204444",
        "id": "11211010",
        "bureauName": "本庄",
        "location": "本庄市日の出4-2-45",
        "measuringStationType": "一般局",
        "contactInformation": "埼玉県",
        "prefectureCode": "11"
    },
    {
        "latitude": "36.028611",
        "longitude": "139.419167",
        "id": "11212020",
        "bureauName": "東松山",
        "location": "東松山市五領町８番地",
        "measuringStationType": "一般局",
        "contactInformation": "埼玉県",
        "prefectureCode": "11"
    },
    {
        "latitude": "36.048889",
        "longitude": "139.414444",
        "id": "11212520",
        "bureauName": "東松山岩鼻自排",
        "location": "東松山市松山１７２１－１",
        "measuringStationType": "自排局",
        "contactInformation": "埼玉県",
        "prefectureCode": "11"
    },
    {
        "latitude": "35.950000",
        "longitude": "139.701111",
        "id": "11213010",
        "bureauName": "さいたま市岩槻",
        "location": "さいたま市岩槻区本町６－１８９－２",
        "measuringStationType": "一般局",
        "contactInformation": "さいたま市",
        "prefectureCode": "11"
    },
    {
        "latitude": "35.968611",
        "longitude": "139.748889",
        "id": "11214030",
        "bureauName": "春日部",
        "location": "春日部市谷原１－３",
        "measuringStationType": "一般局",
        "contactInformation": "埼玉県",
        "prefectureCode": "11"
    },
    {
        "latitude": "35.952778",
        "longitude": "139.730556",
        "id": "11214510",
        "bureauName": "春日部増戸自排",
        "location": "春日部市増戸７２３－１",
        "measuringStationType": "自排局",
        "contactInformation": "埼玉県",
        "prefectureCode": "11"
    },
    {
        "latitude": "35.856389",
        "longitude": "139.451667",
        "id": "11215010",
        "bureauName": "狭山",
        "location": "狭山市堀兼３６１",
        "measuringStationType": "一般局",
        "contactInformation": "埼玉県",
        "prefectureCode": "11"
    },
    {
        "latitude": "36.171389",
        "longitude": "139.559167",
        "id": "11216010",
        "bureauName": "羽生",
        "location": "羽生市藤井下組１１４",
        "measuringStationType": "一般局",
        "contactInformation": "埼玉県",
        "prefectureCode": "11"
    },
    {
        "latitude": "36.062500",
        "longitude": "139.524444",
        "id": "11217010",
        "bureauName": "鴻巣",
        "location": "鴻巣市中央１－１",
        "measuringStationType": "一般局",
        "contactInformation": "埼玉県",
        "prefectureCode": "11"
    },
    {
        "latitude": "36.058333",
        "longitude": "139.522500",
        "id": "11217510",
        "bureauName": "鴻巣天神自排",
        "location": "鴻巣市天神１－１－２８",
        "measuringStationType": "自排局",
        "contactInformation": "埼玉県",
        "prefectureCode": "11"
    },
    {
        "latitude": "36.183889",
        "longitude": "139.282778",
        "id": "11218010",
        "bureauName": "深谷",
        "location": "深谷市上野台５０８",
        "measuringStationType": "一般局",
        "contactInformation": "埼玉県",
        "prefectureCode": "11"
    },
    {
        "latitude": "36.192500",
        "longitude": "139.296667",
        "id": "11218510",
        "bureauName": "深谷原郷自排",
        "location": "深谷市原郷８０",
        "measuringStationType": "自排局",
        "contactInformation": "埼玉県",
        "prefectureCode": "11"
    },
    {
        "latitude": "35.973889",
        "longitude": "139.574444",
        "id": "11219020",
        "bureauName": "上尾",
        "location": "上尾市浅間台３－３５",
        "measuringStationType": "一般局",
        "contactInformation": "埼玉県",
        "prefectureCode": "11"
    },
    {
        "latitude": "35.826111",
        "longitude": "139.798889",
        "id": "11221050",
        "bureauName": "草加市西町",
        "location": "草加市西町４２５－２",
        "measuringStationType": "一般局",
        "contactInformation": "草加市",
        "prefectureCode": "11"
    },
    {
        "latitude": "35.835556",
        "longitude": "139.793056",
        "id": "11221510",
        "bureauName": "草加市花栗自排",
        "location": "草加市花栗4-15-12",
        "measuringStationType": "自排局",
        "contactInformation": "草加市",
        "prefectureCode": "11"
    },
    {
        "latitude": "35.844722",
        "longitude": "139.777222",
        "id": "11221520",
        "bureauName": "草加市原町自排",
        "location": "草加市原町２－７－１",
        "measuringStationType": "自排局",
        "contactInformation": "草加市",
        "prefectureCode": "11"
    },
    {
        "latitude": "35.893056",
        "longitude": "139.798611",
        "id": "11222020",
        "bureauName": "越谷市東越谷",
        "location": "越谷市東越谷３－１４",
        "measuringStationType": "一般局",
        "contactInformation": "越谷市",
        "prefectureCode": "11"
    },
    {
        "latitude": "35.815556",
        "longitude": "139.676389",
        "id": "11224010",
        "bureauName": "戸田",
        "location": "戸田市新曽1093",
        "measuringStationType": "一般局",
        "contactInformation": "埼玉県",
        "prefectureCode": "11"
    },
    {
        "latitude": "35.817778",
        "longitude": "139.646111",
        "id": "11224510",
        "bureauName": "戸田美女木自排",
        "location": "戸田市美女木５－２－１６",
        "measuringStationType": "自排局",
        "contactInformation": "埼玉県",
        "prefectureCode": "11"
    },
    {
        "latitude": "35.827778",
        "longitude": "139.399167",
        "id": "11225010",
        "bureauName": "入間",
        "location": "入間市東町１-１６",
        "measuringStationType": "一般局",
        "contactInformation": "埼玉県",
        "prefectureCode": "11"
    },
    {
        "latitude": "35.774722",
        "longitude": "139.621389",
        "id": "11229010",
        "bureauName": "和光",
        "location": "和光市諏訪３－２０",
        "measuringStationType": "一般局",
        "contactInformation": "埼玉県",
        "prefectureCode": "11"
    },
    {
        "latitude": "35.776389",
        "longitude": "139.617778",
        "id": "11229510",
        "bureauName": "和光新倉自排",
        "location": "和光市新倉１－３１－１０",
        "measuringStationType": "自排局",
        "contactInformation": "埼玉県",
        "prefectureCode": "11"
    },
    {
        "latitude": "35.776111",
        "longitude": "139.558889",
        "id": "11230070",
        "bureauName": "新座",
        "location": "新座市本多１－９－２２",
        "measuringStationType": "一般局",
        "contactInformation": "埼玉県",
        "prefectureCode": "11"
    },
    {
        "latitude": "36.061667",
        "longitude": "139.664722",
        "id": "11232010",
        "bureauName": "久喜",
        "location": "久喜市江面８５",
        "measuringStationType": "一般局",
        "contactInformation": "埼玉県",
        "prefectureCode": "11"
    },
    {
        "latitude": "36.072222",
        "longitude": "139.668889",
        "id": "11232510",
        "bureauName": "久喜本町自排",
        "location": "久喜市本町７－９１３－１",
        "measuringStationType": "自排局",
        "contactInformation": "埼玉県",
        "prefectureCode": "11"
    },
    {
        "latitude": "35.819444",
        "longitude": "139.842500",
        "id": "11234010",
        "bureauName": "八潮",
        "location": "八潮市中央１－２－１",
        "measuringStationType": "一般局",
        "contactInformation": "埼玉県",
        "prefectureCode": "11"
    },
    {
        "latitude": "35.853611",
        "longitude": "139.552222",
        "id": "11235010",
        "bureauName": "富士見",
        "location": "富士見市鶴馬１８００－１",
        "measuringStationType": "一般局",
        "contactInformation": "埼玉県",
        "prefectureCode": "11"
    },
    {
        "latitude": "35.841111",
        "longitude": "139.885000",
        "id": "11237020",
        "bureauName": "三郷",
        "location": "三郷市三郷３－２－１",
        "measuringStationType": "一般局",
        "contactInformation": "埼玉県",
        "prefectureCode": "11"
    },
    {
        "latitude": "35.972778",
        "longitude": "139.649444",
        "id": "11238010",
        "bureauName": "蓮田",
        "location": "蓮田市蓮田５－３０",
        "measuringStationType": "一般局",
        "contactInformation": "埼玉県",
        "prefectureCode": "11"
    },
    {
        "latitude": "35.967778",
        "longitude": "139.404722",
        "id": "11239010",
        "bureauName": "坂戸",
        "location": "坂戸市芦山町１１",
        "measuringStationType": "一般局",
        "contactInformation": "埼玉県",
        "prefectureCode": "11"
    },
    {
        "latitude": "36.071667",
        "longitude": "139.735000",
        "id": "11240010",
        "bureauName": "幸手",
        "location": "幸手市幸手２２６２",
        "measuringStationType": "一般局",
        "contactInformation": "埼玉県",
        "prefectureCode": "11"
    },
    {
        "latitude": "35.927778",
        "longitude": "139.403056",
        "id": "11241510",
        "bureauName": "鶴ヶ島自排",
        "location": "鶴ヶ島市太田ヶ谷６１７－１８",
        "measuringStationType": "自排局",
        "contactInformation": "埼玉県",
        "prefectureCode": "11"
    },
    {
        "latitude": "35.961944",
        "longitude": "139.325556",
        "id": "11326010",
        "bureauName": "毛呂山",
        "location": "入間郡毛呂山町目白台2-31-1",
        "measuringStationType": "一般局",
        "contactInformation": "埼玉県",
        "prefectureCode": "11"
    },
    {
        "latitude": "35.890000",
        "longitude": "139.346667",
        "id": "11329010",
        "bureauName": "日高",
        "location": "日高市中鹿山８１",
        "measuringStationType": "一般局",
        "contactInformation": "埼玉県",
        "prefectureCode": "11"
    },
    {
        "latitude": "36.057778",
        "longitude": "139.263611",
        "id": "11343010",
        "bureauName": "小川",
        "location": "比企郡小川町大塚１１０５",
        "measuringStationType": "一般局",
        "contactInformation": "埼玉県",
        "prefectureCode": "11"
    },
    {
        "latitude": "36.002222",
        "longitude": "139.193889",
        "id": "11344010",
        "bureauName": "東秩父",
        "location": "秩父郡東秩父村白石６０１-２",
        "measuringStationType": "一般局",
        "contactInformation": "埼玉県",
        "prefectureCode": "11"
    },
    {
        "latitude": "36.189167",
        "longitude": "139.137500",
        "id": "11382010",
        "bureauName": "本庄児玉",
        "location": "本庄市児玉町児玉１３５５－１",
        "measuringStationType": "一般局",
        "contactInformation": "埼玉県",
        "prefectureCode": "11"
    },
    {
        "latitude": "36.220000",
        "longitude": "139.384722",
        "id": "11403010",
        "bureauName": "熊谷妻沼東",
        "location": "熊谷市妻沼東１－１",
        "measuringStationType": "一般局",
        "contactInformation": "埼玉県",
        "prefectureCode": "11"
    },
    {
        "latitude": "36.119167",
        "longitude": "139.210833",
        "id": "11408510",
        "bureauName": "寄居桜沢自排",
        "location": "大里郡寄居町桜沢２３４－３",
        "measuringStationType": "自排局",
        "contactInformation": "埼玉県",
        "prefectureCode": "11"
    },
    {
        "latitude": "36.081111",
        "longitude": "139.563611",
        "id": "11421010",
        "bureauName": "環境科学国際センター",
        "location": "加須市上種足９１４",
        "measuringStationType": "一般局",
        "contactInformation": "埼玉県",
        "prefectureCode": "11"
    },
    {
        "latitude": "35.693889",
        "longitude": "140.098333",
        "id": "12201010",
        "bureauName": "花見川小学校",
        "location": "千葉市花見川区花見川４－１",
        "measuringStationType": "一般局",
        "contactInformation": "千葉市",
        "prefectureCode": "12"
    },
    {
        "latitude": "35.649444",
        "longitude": "140.067500",
        "id": "12201020",
        "bureauName": "検見川小学校",
        "location": "千葉市花見川区検見川町３－３２２－２３",
        "measuringStationType": "一般局",
        "contactInformation": "千葉市",
        "prefectureCode": "12"
    },
    {
        "latitude": "35.664722",
        "longitude": "140.143056",
        "id": "12201040",
        "bureauName": "山王小学校",
        "location": "千葉市稲毛区山王町１２１",
        "measuringStationType": "一般局",
        "contactInformation": "千葉市",
        "prefectureCode": "12"
    },
    {
        "latitude": "35.653889",
        "longitude": "140.097778",
        "id": "12201050",
        "bureauName": "宮野木",
        "location": "千葉市稲毛区宮野木町９９６－９",
        "measuringStationType": "一般局",
        "contactInformation": "千葉市",
        "prefectureCode": "12"
    },
    {
        "latitude": "35.597222",
        "longitude": "140.181667",
        "id": "12201070",
        "bureauName": "大宮小学校",
        "location": "千葉市若葉区大宮台７－８－１",
        "measuringStationType": "一般局",
        "contactInformation": "千葉市",
        "prefectureCode": "12"
    },
    {
        "latitude": "35.628611",
        "longitude": "140.183611",
        "id": "12201090",
        "bureauName": "千城台わかば小学校",
        "location": "千葉市若葉区千城台北１－４－１",
        "measuringStationType": "一般局",
        "contactInformation": "千葉市",
        "prefectureCode": "12"
    },
    {
        "latitude": "35.596389",
        "longitude": "140.121389",
        "id": "12201120",
        "bureauName": "寒川小学校",
        "location": "千葉市中央区寒川町１－２０５",
        "measuringStationType": "一般局",
        "contactInformation": "千葉市",
        "prefectureCode": "12"
    },
    {
        "latitude": "35.567222",
        "longitude": "140.128889",
        "id": "12201160",
        "bureauName": "福正寺",
        "location": "千葉市中央区今井１－１３－２４",
        "measuringStationType": "一般局",
        "contactInformation": "千葉市",
        "prefectureCode": "12"
    },
    {
        "latitude": "35.572222",
        "longitude": "140.130833",
        "id": "12201180",
        "bureauName": "蘇我保育所",
        "location": "千葉市中央区蘇我２－３－１８",
        "measuringStationType": "一般局",
        "contactInformation": "千葉市",
        "prefectureCode": "12"
    },
    {
        "latitude": "35.607500",
        "longitude": "140.107778",
        "id": "12201200",
        "bureauName": "千葉市役所自排",
        "location": "千葉市中央区千葉港１－１",
        "measuringStationType": "自排局",
        "contactInformation": "千葉市",
        "prefectureCode": "12"
    },
    {
        "latitude": "35.610278",
        "longitude": "140.137778",
        "id": "12201250",
        "bureauName": "都公園",
        "location": "千葉市中央区都町２－１４",
        "measuringStationType": "一般局",
        "contactInformation": "千葉市",
        "prefectureCode": "12"
    },
    {
        "latitude": "35.531944",
        "longitude": "140.260833",
        "id": "12201260",
        "bureauName": "土気",
        "location": "千葉市緑区大椎町１２５１－３１６",
        "measuringStationType": "一般局",
        "contactInformation": "千葉市",
        "prefectureCode": "12"
    },
    {
        "latitude": "35.638333",
        "longitude": "140.117778",
        "id": "12201300",
        "bureauName": "千草自排",
        "location": "千葉市稲毛区千草台２－１３５９－１",
        "measuringStationType": "自排局",
        "contactInformation": "千葉市",
        "prefectureCode": "12"
    },
    {
        "latitude": "35.633889",
        "longitude": "140.069444",
        "id": "12201320",
        "bureauName": "真砂公園",
        "location": "千葉市美浜区真砂１－１１",
        "measuringStationType": "一般局",
        "contactInformation": "千葉市",
        "prefectureCode": "12"
    },
    {
        "latitude": "35.609444",
        "longitude": "140.120000",
        "id": "12201520",
        "bureauName": "葭川自排",
        "location": "千葉市中央区中央２－１－１",
        "measuringStationType": "自排局",
        "contactInformation": "千葉市",
        "prefectureCode": "12"
    },
    {
        "latitude": "35.658056",
        "longitude": "140.098056",
        "id": "12201540",
        "bureauName": "宮野木自排",
        "location": "千葉市花見川区宮野木台４－５２１－１",
        "measuringStationType": "自排局",
        "contactInformation": "千葉市",
        "prefectureCode": "12"
    },
    {
        "latitude": "35.628333",
        "longitude": "140.066389",
        "id": "12201570",
        "bureauName": "真砂自排",
        "location": "千葉市美浜区真砂５－１",
        "measuringStationType": "自排局",
        "contactInformation": "千葉市",
        "prefectureCode": "12"
    },
    {
        "latitude": "35.693333",
        "longitude": "139.960278",
        "id": "12203040",
        "bureauName": "市川二俣",
        "location": "市川市二俣６７８",
        "measuringStationType": "一般局",
        "contactInformation": "市川市",
        "prefectureCode": "12"
    },
    {
        "latitude": "35.746944",
        "longitude": "139.957222",
        "id": "12203080",
        "bureauName": "市川大野",
        "location": "市川市大野２－１８７７",
        "measuringStationType": "一般局",
        "contactInformation": "市川市",
        "prefectureCode": "12"
    },
    {
        "latitude": "35.728333",
        "longitude": "139.909167",
        "id": "12203510",
        "bureauName": "市川市市川（車）",
        "location": "市川市市川２－３３－６",
        "measuringStationType": "自排局",
        "contactInformation": "市川市",
        "prefectureCode": "12"
    },
    {
        "latitude": "35.683056",
        "longitude": "139.919722",
        "id": "12203520",
        "bureauName": "市川行徳（車）",
        "location": "市川市末広１－１－４８",
        "measuringStationType": "自排局",
        "contactInformation": "市川市",
        "prefectureCode": "12"
    },
    {
        "latitude": "35.742222",
        "longitude": "139.995833",
        "id": "12204040",
        "bureauName": "船橋丸山",
        "location": "船橋市丸山５－２５－１",
        "measuringStationType": "一般局",
        "contactInformation": "船橋市",
        "prefectureCode": "12"
    },
    {
        "latitude": "35.726111",
        "longitude": "140.009167",
        "id": "12204050",
        "bureauName": "船橋高根",
        "location": "船橋市高根町２８９５",
        "measuringStationType": "一般局",
        "contactInformation": "船橋市",
        "prefectureCode": "12"
    },
    {
        "latitude": "35.728889",
        "longitude": "140.042222",
        "id": "12204060",
        "bureauName": "船橋高根台",
        "location": "船橋市高根台５－２－１",
        "measuringStationType": "一般局",
        "contactInformation": "船橋市",
        "prefectureCode": "12"
    },
    {
        "latitude": "35.695278",
        "longitude": "140.023889",
        "id": "12204070",
        "bureauName": "船橋前原",
        "location": "船橋市前原西２－２８－１",
        "measuringStationType": "一般局",
        "contactInformation": "船橋市",
        "prefectureCode": "12"
    },
    {
        "latitude": "35.757778",
        "longitude": "140.077778",
        "id": "12204100",
        "bureauName": "船橋豊富",
        "location": "船橋市金堀町５２２－１",
        "measuringStationType": "一般局",
        "contactInformation": "船橋市",
        "prefectureCode": "12"
    },
    {
        "latitude": "35.713889",
        "longitude": "139.959167",
        "id": "12204110",
        "bureauName": "船橋印内",
        "location": "船橋市印内１－２－１",
        "measuringStationType": "一般局",
        "contactInformation": "船橋市",
        "prefectureCode": "12"
    },
    {
        "latitude": "35.676111",
        "longitude": "139.993889",
        "id": "12204140",
        "bureauName": "船橋若松",
        "location": "船橋市若松３－２－３",
        "measuringStationType": "一般局",
        "contactInformation": "船橋市",
        "prefectureCode": "12"
    },
    {
        "latitude": "35.696944",
        "longitude": "139.977222",
        "id": "12204150",
        "bureauName": "船橋南本町",
        "location": "船橋市南本町１０－１",
        "measuringStationType": "一般局",
        "contactInformation": "船橋市",
        "prefectureCode": "12"
    },
    {
        "latitude": "35.699722",
        "longitude": "139.976667",
        "id": "12204520",
        "bureauName": "船橋海神（車）",
        "location": "船橋市海神町３－３９９－１",
        "measuringStationType": "自排局",
        "contactInformation": "船橋市",
        "prefectureCode": "12"
    },
    {
        "latitude": "35.688333",
        "longitude": "139.996111",
        "id": "12204530",
        "bureauName": "船橋日の出（車）",
        "location": "船橋市日の出１－１６",
        "measuringStationType": "自排局",
        "contactInformation": "船橋市",
        "prefectureCode": "12"
    },
    {
        "latitude": "35.018333",
        "longitude": "139.883611",
        "id": "12205030",
        "bureauName": "館山亀ケ原",
        "location": "館山市亀ケ原７５４",
        "measuringStationType": "一般局",
        "contactInformation": "千葉県",
        "prefectureCode": "12"
    },
    {
        "latitude": "35.384722",
        "longitude": "139.925000",
        "id": "12206010",
        "bureauName": "木更津中央",
        "location": "木更津市中央１－１０－１",
        "measuringStationType": "一般局",
        "contactInformation": "千葉県",
        "prefectureCode": "12"
    },
    {
        "latitude": "35.417778",
        "longitude": "139.903056",
        "id": "12206030",
        "bureauName": "木更津畔戸",
        "location": "木更津市畔戸１５２５番地",
        "measuringStationType": "一般局",
        "contactInformation": "千葉県",
        "prefectureCode": "12"
    },
    {
        "latitude": "35.377222",
        "longitude": "139.954167",
        "id": "12206070",
        "bureauName": "木更津清見台",
        "location": "木更津市清見台南１－１５",
        "measuringStationType": "一般局",
        "contactInformation": "千葉県",
        "prefectureCode": "12"
    },
    {
        "latitude": "35.338611",
        "longitude": "139.906389",
        "id": "12206080",
        "bureauName": "木更津畑沢",
        "location": "木更津市畑沢南２－１６－１",
        "measuringStationType": "一般局",
        "contactInformation": "千葉県",
        "prefectureCode": "12"
    },
    {
        "latitude": "35.365000",
        "longitude": "140.070833",
        "id": "12206140",
        "bureauName": "木更津真里谷",
        "location": "木更津市真里谷５２４－３",
        "measuringStationType": "一般局",
        "contactInformation": "千葉県",
        "prefectureCode": "12"
    },
    {
        "latitude": "35.370556",
        "longitude": "139.941389",
        "id": "12206520",
        "bureauName": "木更津請西（車）",
        "location": "木更津市請西２－１－２４",
        "measuringStationType": "自排局",
        "contactInformation": "千葉県",
        "prefectureCode": "12"
    },
    {
        "latitude": "35.403889",
        "longitude": "139.966667",
        "id": "12206530",
        "bureauName": "木更津牛袋（車）",
        "location": "木更津市牛袋５９１－２",
        "measuringStationType": "自排局",
        "contactInformation": "千葉県",
        "prefectureCode": "12"
    },
    {
        "latitude": "35.784167",
        "longitude": "139.906111",
        "id": "12207010",
        "bureauName": "松戸根本",
        "location": "松戸市根本３８７－５",
        "measuringStationType": "一般局",
        "contactInformation": "松戸市",
        "prefectureCode": "12"
    },
    {
        "latitude": "35.944444",
        "longitude": "139.869167",
        "id": "12208010",
        "bureauName": "野田市野田",
        "location": "野田市野田７９４－１",
        "measuringStationType": "一般局",
        "contactInformation": "千葉県",
        "prefectureCode": "12"
    },
    {
        "latitude": "35.883889",
        "longitude": "140.556111",
        "id": "12209010",
        "bureauName": "香取大倉",
        "location": "香取市大倉２１４７－３",
        "measuringStationType": "一般局",
        "contactInformation": "千葉県",
        "prefectureCode": "12"
    },
    {
        "latitude": "35.431111",
        "longitude": "140.289167",
        "id": "12210010",
        "bureauName": "茂原高師",
        "location": "茂原市高師１２４７－６",
        "measuringStationType": "一般局",
        "contactInformation": "千葉県",
        "prefectureCode": "12"
    },
    {
        "latitude": "35.770833",
        "longitude": "140.299722",
        "id": "12211040",
        "bureauName": "成田加良部",
        "location": "成田市加良部５－１１",
        "measuringStationType": "一般局",
        "contactInformation": "千葉県",
        "prefectureCode": "12"
    },
    {
        "latitude": "35.775000",
        "longitude": "140.324722",
        "id": "12211510",
        "bureauName": "成田花崎（車）",
        "location": "成田市花崎町７８９－４",
        "measuringStationType": "自排局",
        "contactInformation": "千葉県",
        "prefectureCode": "12"
    },
    {
        "latitude": "35.724444",
        "longitude": "140.209722",
        "id": "12212040",
        "bureauName": "佐倉江原新田",
        "location": "佐倉市江原新田５４－１",
        "measuringStationType": "一般局",
        "contactInformation": "千葉県",
        "prefectureCode": "12"
    },
    {
        "latitude": "35.680833",
        "longitude": "140.220278",
        "id": "12212520",
        "bureauName": "佐倉山王（車）",
        "location": "佐倉市山王２－３７－４",
        "measuringStationType": "自排局",
        "contactInformation": "千葉県",
        "prefectureCode": "12"
    },
    {
        "latitude": "35.551667",
        "longitude": "140.375278",
        "id": "12213010",
        "bureauName": "東金堀上",
        "location": "東金市堀上１１１",
        "measuringStationType": "一般局",
        "contactInformation": "千葉県",
        "prefectureCode": "12"
    },
    {
        "latitude": "35.717222",
        "longitude": "140.581389",
        "id": "12214010",
        "bureauName": "匝瑳椿",
        "location": "匝瑳市椿９６９－１",
        "measuringStationType": "一般局",
        "contactInformation": "千葉県",
        "prefectureCode": "12"
    },
    {
        "latitude": "35.682222",
        "longitude": "140.035556",
        "id": "12216010",
        "bureauName": "習志野鷺沼",
        "location": "習志野市鷺沼台１－５９１－１",
        "measuringStationType": "一般局",
        "contactInformation": "千葉県",
        "prefectureCode": "12"
    },
    {
        "latitude": "35.840556",
        "longitude": "139.975556",
        "id": "12217020",
        "bureauName": "柏永楽台",
        "location": "柏市永楽台２－８－１",
        "measuringStationType": "一般局",
        "contactInformation": "柏市",
        "prefectureCode": "12"
    },
    {
        "latitude": "35.896944",
        "longitude": "139.966944",
        "id": "12217030",
        "bureauName": "柏大室",
        "location": "柏市大室１２５６",
        "measuringStationType": "一般局",
        "contactInformation": "柏市",
        "prefectureCode": "12"
    },
    {
        "latitude": "35.857500",
        "longitude": "139.968889",
        "id": "12217510",
        "bureauName": "柏旭（車）",
        "location": "柏市旭町３－８３１－３５",
        "measuringStationType": "自排局",
        "contactInformation": "柏市",
        "prefectureCode": "12"
    },
    {
        "latitude": "35.892222",
        "longitude": "139.917500",
        "id": "12217520",
        "bureauName": "柏西原（車）",
        "location": "柏市西原２－１１－２５",
        "measuringStationType": "自排局",
        "contactInformation": "柏市",
        "prefectureCode": "12"
    },
    {
        "latitude": "35.175833",
        "longitude": "140.268889",
        "id": "12218010",
        "bureauName": "勝浦小羽戸",
        "location": "勝浦市小羽戸５８－２",
        "measuringStationType": "一般局",
        "contactInformation": "千葉県",
        "prefectureCode": "12"
    },
    {
        "latitude": "35.533611",
        "longitude": "140.127222",
        "id": "12219010",
        "bureauName": "市原八幡",
        "location": "市原市八幡８３１－２",
        "measuringStationType": "一般局",
        "contactInformation": "市原市",
        "prefectureCode": "12"
    },
    {
        "latitude": "35.508889",
        "longitude": "140.089722",
        "id": "12219030",
        "bureauName": "市原五井",
        "location": "市原市五井５５００－１",
        "measuringStationType": "一般局",
        "contactInformation": "市原市",
        "prefectureCode": "12"
    },
    {
        "latitude": "35.475278",
        "longitude": "140.052778",
        "id": "12219060",
        "bureauName": "市原姉崎",
        "location": "市原市姉崎１８５０",
        "measuringStationType": "一般局",
        "contactInformation": "市原市",
        "prefectureCode": "12"
    },
    {
        "latitude": "35.484444",
        "longitude": "140.080278",
        "id": "12219090",
        "bureauName": "市原廿五里",
        "location": "市原市廿五里５５８",
        "measuringStationType": "一般局",
        "contactInformation": "市原市",
        "prefectureCode": "12"
    },
    {
        "latitude": "35.493889",
        "longitude": "140.183611",
        "id": "12219110",
        "bureauName": "市原潤井戸",
        "location": "市原市潤井戸２２９９－１４",
        "measuringStationType": "一般局",
        "contactInformation": "市原市",
        "prefectureCode": "12"
    },
    {
        "latitude": "35.520000",
        "longitude": "140.154167",
        "id": "12219120",
        "bureauName": "市原辰巳台",
        "location": "市原市辰巳台西５－１０",
        "measuringStationType": "一般局",
        "contactInformation": "市原市",
        "prefectureCode": "12"
    },
    {
        "latitude": "35.445278",
        "longitude": "140.055278",
        "id": "12219140",
        "bureauName": "市原有秋",
        "location": "市原市有秋台西２－３",
        "measuringStationType": "一般局",
        "contactInformation": "市原市",
        "prefectureCode": "12"
    },
    {
        "latitude": "35.445278",
        "longitude": "140.139167",
        "id": "12219180",
        "bureauName": "市原松崎",
        "location": "市原市松崎８２０",
        "measuringStationType": "一般局",
        "contactInformation": "市原市",
        "prefectureCode": "12"
    },
    {
        "latitude": "35.523333",
        "longitude": "140.071389",
        "id": "12219190",
        "bureauName": "市原岩崎西",
        "location": "市原市岩崎西１－８－８",
        "measuringStationType": "一般局",
        "contactInformation": "千葉県",
        "prefectureCode": "12"
    },
    {
        "latitude": "35.506667",
        "longitude": "140.118611",
        "id": "12219200",
        "bureauName": "市原郡本",
        "location": "市原市北国分寺台３－５－１",
        "measuringStationType": "一般局",
        "contactInformation": "市原市",
        "prefectureCode": "12"
    },
    {
        "latitude": "35.330000",
        "longitude": "140.150000",
        "id": "12219380",
        "bureauName": "市原平野",
        "location": "市原市平野１２３",
        "measuringStationType": "一般局",
        "contactInformation": "市原市",
        "prefectureCode": "12"
    },
    {
        "latitude": "35.402500",
        "longitude": "140.146389",
        "id": "12219390",
        "bureauName": "市原奉免",
        "location": "市原市奉免１６６－１",
        "measuringStationType": "一般局",
        "contactInformation": "市原市",
        "prefectureCode": "12"
    },
    {
        "latitude": "35.853611",
        "longitude": "139.906667",
        "id": "12220010",
        "bureauName": "流山平和台",
        "location": "流山市平和台１－３－１４",
        "measuringStationType": "一般局",
        "contactInformation": "千葉県",
        "prefectureCode": "12"
    },
    {
        "latitude": "35.713611",
        "longitude": "140.085000",
        "id": "12221020",
        "bureauName": "八千代高津",
        "location": "八千代市高津４２１－３",
        "measuringStationType": "一般局",
        "contactInformation": "千葉県",
        "prefectureCode": "12"
    },
    {
        "latitude": "35.713056",
        "longitude": "140.116667",
        "id": "12221510",
        "bureauName": "八千代村上（車）",
        "location": "八千代市村上３１０３",
        "measuringStationType": "自排局",
        "contactInformation": "千葉県",
        "prefectureCode": "12"
    },
    {
        "latitude": "35.858889",
        "longitude": "140.079722",
        "id": "12222010",
        "bureauName": "我孫子湖北台",
        "location": "我孫子市湖北台４－３－１",
        "measuringStationType": "一般局",
        "contactInformation": "千葉県",
        "prefectureCode": "12"
    },
    {
        "latitude": "35.790556",
        "longitude": "140.021111",
        "id": "12224040",
        "bureauName": "鎌ケ谷軽井沢",
        "location": "鎌ケ谷市軽井沢２０６０－３２",
        "measuringStationType": "一般局",
        "contactInformation": "千葉県",
        "prefectureCode": "12"
    },
    {
        "latitude": "35.780556",
        "longitude": "140.011111",
        "id": "12224510",
        "bureauName": "鎌ケ谷初富（車）",
        "location": "鎌ケ谷市初富９２４－６",
        "measuringStationType": "自排局",
        "contactInformation": "千葉県",
        "prefectureCode": "12"
    },
    {
        "latitude": "35.331667",
        "longitude": "139.901944",
        "id": "12225010",
        "bureauName": "君津久保",
        "location": "君津市久保２－１１",
        "measuringStationType": "一般局",
        "contactInformation": "千葉県",
        "prefectureCode": "12"
    },
    {
        "latitude": "35.340278",
        "longitude": "139.887778",
        "id": "12225030",
        "bureauName": "君津坂田",
        "location": "君津市坂田５１８",
        "measuringStationType": "一般局",
        "contactInformation": "千葉県",
        "prefectureCode": "12"
    },
    {
        "latitude": "35.298333",
        "longitude": "139.931111",
        "id": "12225070",
        "bureauName": "君津宮下",
        "location": "君津市宮下１－４－１",
        "measuringStationType": "一般局",
        "contactInformation": "千葉県",
        "prefectureCode": "12"
    },
    {
        "latitude": "35.339722",
        "longitude": "139.869167",
        "id": "12225080",
        "bureauName": "君津人見",
        "location": "君津市人見１１５４",
        "measuringStationType": "一般局",
        "contactInformation": "千葉県",
        "prefectureCode": "12"
    },
    {
        "latitude": "35.319444",
        "longitude": "140.056667",
        "id": "12225090",
        "bureauName": "君津俵田",
        "location": "君津市俵田１１１０",
        "measuringStationType": "一般局",
        "contactInformation": "千葉県",
        "prefectureCode": "12"
    },
    {
        "latitude": "35.301111",
        "longitude": "139.972500",
        "id": "12225120",
        "bureauName": "君津糠田",
        "location": "君津市糠田５５",
        "measuringStationType": "一般局",
        "contactInformation": "千葉県",
        "prefectureCode": "12"
    },
    {
        "latitude": "35.318889",
        "longitude": "139.856667",
        "id": "12226010",
        "bureauName": "富津下飯野",
        "location": "富津市下飯野１１３５",
        "measuringStationType": "一般局",
        "contactInformation": "千葉県",
        "prefectureCode": "12"
    },
    {
        "latitude": "35.652222",
        "longitude": "139.914167",
        "id": "12227510",
        "bureauName": "浦安美浜（車）",
        "location": "浦安市美浜４－６",
        "measuringStationType": "自排局",
        "contactInformation": "千葉県",
        "prefectureCode": "12"
    },
    {
        "latitude": "35.666111",
        "longitude": "140.175000",
        "id": "12228010",
        "bureauName": "四街道鹿渡",
        "location": "四街道市鹿渡８０９－２",
        "measuringStationType": "一般局",
        "contactInformation": "千葉県",
        "prefectureCode": "12"
    },
    {
        "latitude": "35.669722",
        "longitude": "140.315278",
        "id": "12230010",
        "bureauName": "八街市八街",
        "location": "八街市八街ほ２０８－１０６",
        "measuringStationType": "一般局",
        "contactInformation": "千葉県",
        "prefectureCode": "12"
    },
    {
        "latitude": "35.655556",
        "longitude": "139.909167",
        "id": "12301020",
        "bureauName": "浦安猫実",
        "location": "浦安市猫実１－２－７",
        "measuringStationType": "一般局",
        "contactInformation": "千葉県",
        "prefectureCode": "12"
    },
    {
        "latitude": "36.044444",
        "longitude": "139.817222",
        "id": "12303010",
        "bureauName": "野田桐ケ作",
        "location": "野田市桐ケ作４１５－１",
        "measuringStationType": "一般局",
        "contactInformation": "千葉県",
        "prefectureCode": "12"
    },
    {
        "latitude": "35.838611",
        "longitude": "140.004722",
        "id": "12305510",
        "bureauName": "柏大津ケ丘（車）",
        "location": "柏市大津ヶ丘２－１",
        "measuringStationType": "自排局",
        "contactInformation": "柏市",
        "prefectureCode": "12"
    },
    {
        "latitude": "35.795833",
        "longitude": "140.047500",
        "id": "12326010",
        "bureauName": "白井七次台",
        "location": "白井市七次台３－２２",
        "measuringStationType": "一般局",
        "contactInformation": "千葉県",
        "prefectureCode": "12"
    },
    {
        "latitude": "35.791111",
        "longitude": "140.135556",
        "id": "12327010",
        "bureauName": "印西高花",
        "location": "印西市高花１－３",
        "measuringStationType": "一般局",
        "contactInformation": "千葉県",
        "prefectureCode": "12"
    },
    {
        "latitude": "35.843611",
        "longitude": "140.249444",
        "id": "12329010",
        "bureauName": "栄安食台",
        "location": "印旛郡栄町安食台４－３４－１",
        "measuringStationType": "一般局",
        "contactInformation": "千葉県",
        "prefectureCode": "12"
    },
    {
        "latitude": "35.852500",
        "longitude": "140.420556",
        "id": "12343010",
        "bureauName": "成田奈土",
        "location": "成田市奈土1044",
        "measuringStationType": "一般局",
        "contactInformation": "千葉県",
        "prefectureCode": "12"
    },
    {
        "latitude": "35.844444",
        "longitude": "140.606111",
        "id": "12344020",
        "bureauName": "香取羽根川",
        "location": "香取市羽根川５５－５",
        "measuringStationType": "一般局",
        "contactInformation": "千葉県",
        "prefectureCode": "12"
    },
    {
        "latitude": "35.786389",
        "longitude": "140.608889",
        "id": "12345020",
        "bureauName": "香取府馬",
        "location": "香取市府馬３４２９－４",
        "measuringStationType": "一般局",
        "contactInformation": "千葉県",
        "prefectureCode": "12"
    },
    {
        "latitude": "35.651667",
        "longitude": "140.487778",
        "id": "12408010",
        "bureauName": "横芝光横芝",
        "location": "山武郡横芝光町横芝１８００",
        "measuringStationType": "一般局",
        "contactInformation": "千葉県",
        "prefectureCode": "12"
    },
    {
        "latitude": "35.714444",
        "longitude": "140.406667",
        "id": "12409010",
        "bureauName": "芝山山田",
        "location": "山武郡芝山町山田１０６５",
        "measuringStationType": "一般局",
        "contactInformation": "千葉県",
        "prefectureCode": "12"
    },
    {
        "latitude": "35.344722",
        "longitude": "140.383333",
        "id": "12421020",
        "bureauName": "一宮東浪見",
        "location": "長生郡一宮町東浪見１５１６－２",
        "measuringStationType": "一般局",
        "contactInformation": "千葉県",
        "prefectureCode": "12"
    },
    {
        "latitude": "35.107222",
        "longitude": "139.838611",
        "id": "12463010",
        "bureauName": "鋸南下佐久間",
        "location": "安房郡鋸南町下佐久間３４５８",
        "measuringStationType": "一般局",
        "contactInformation": "千葉県",
        "prefectureCode": "12"
    },
    {
        "latitude": "35.425556",
        "longitude": "139.957222",
        "id": "12481010",
        "bureauName": "袖ケ浦坂戸市場",
        "location": "袖ケ浦市坂戸市場４４",
        "measuringStationType": "一般局",
        "contactInformation": "千葉県",
        "prefectureCode": "12"
    },
    {
        "latitude": "35.453056",
        "longitude": "140.033056",
        "id": "12481040",
        "bureauName": "袖ケ浦代宿",
        "location": "袖ケ浦市代宿３０５",
        "measuringStationType": "一般局",
        "contactInformation": "千葉県",
        "prefectureCode": "12"
    },
    {
        "latitude": "35.413611",
        "longitude": "140.005833",
        "id": "12481050",
        "bureauName": "袖ケ浦三ッ作",
        "location": "袖ケ浦市三ッ作７４１",
        "measuringStationType": "一般局",
        "contactInformation": "千葉県",
        "prefectureCode": "12"
    },
    {
        "latitude": "35.430000",
        "longitude": "140.022778",
        "id": "12481060",
        "bureauName": "袖ケ浦蔵波",
        "location": "袖ケ浦市蔵波９９５ー７",
        "measuringStationType": "一般局",
        "contactInformation": "千葉県",
        "prefectureCode": "12"
    },
    {
        "latitude": "35.361389",
        "longitude": "140.011389",
        "id": "12481070",
        "bureauName": "袖ケ浦吉野田",
        "location": "袖ケ浦市吉野田１９８",
        "measuringStationType": "一般局",
        "contactInformation": "千葉県",
        "prefectureCode": "12"
    },
    {
        "latitude": "35.386944",
        "longitude": "140.036944",
        "id": "12481080",
        "bureauName": "袖ケ浦横田",
        "location": "袖ケ浦市横田５００",
        "measuringStationType": "一般局",
        "contactInformation": "千葉県",
        "prefectureCode": "12"
    },
    {
        "latitude": "35.421111",
        "longitude": "140.072222",
        "id": "12481090",
        "bureauName": "袖ケ浦川原井",
        "location": "袖ケ浦市川原井１８７１－１１",
        "measuringStationType": "一般局",
        "contactInformation": "千葉県",
        "prefectureCode": "12"
    },
    {
        "latitude": "35.444444",
        "longitude": "140.006944",
        "id": "12481160",
        "bureauName": "袖ケ浦長浦",
        "location": "袖ケ浦市長浦駅前６－１－４",
        "measuringStationType": "一般局",
        "contactInformation": "千葉県",
        "prefectureCode": "12"
    },
    {
        "latitude": "35.431667",
        "longitude": "139.973611",
        "id": "12481510",
        "bureauName": "袖ケ浦福王台(車）",
        "location": "袖ケ浦市福王台４－１０－４",
        "measuringStationType": "自排局",
        "contactInformation": "千葉県",
        "prefectureCode": "12"
    },
    {
        "latitude": "35.418333",
        "longitude": "140.018889",
        "id": "12481520",
        "bureauName": "袖ケ浦大曽根（車）",
        "location": "袖ケ浦市大曽根１９９０",
        "measuringStationType": "自排局",
        "contactInformation": "千葉県",
        "prefectureCode": "12"
    },
    {
        "latitude": "35.688889",
        "longitude": "139.772222",
        "id": "13101010",
        "bureauName": "千代田区神田司町",
        "location": "千代田区神田司町２丁目２番地",
        "measuringStationType": "一般局",
        "contactInformation": "東京都",
        "prefectureCode": "13"
    },
    {
        "latitude": "35.672222",
        "longitude": "139.761111",
        "id": "13101510",
        "bureauName": "日比谷交差点",
        "location": "千代田区",
        "measuringStationType": "自排局",
        "contactInformation": "東京都",
        "prefectureCode": "13"
    },
    {
        "latitude": "35.669444",
        "longitude": "139.756389",
        "id": "13101520",
        "bureauName": "国設霞が関",
        "location": "千代田区",
        "measuringStationType": "自排局",
        "contactInformation": "環境省",
        "prefectureCode": "13"
    },
    {
        "latitude": "35.652778",
        "longitude": "139.783333",
        "id": "13102010",
        "bureauName": "中央区晴海",
        "location": "中央区晴海三丁目６番１号",
        "measuringStationType": "一般局",
        "contactInformation": "東京都",
        "prefectureCode": "13"
    },
    {
        "latitude": "35.675000",
        "longitude": "139.786111",
        "id": "13102510",
        "bureauName": "永代通り新川",
        "location": "中央区新川一丁目３番１号",
        "measuringStationType": "自排局",
        "contactInformation": "東京都",
        "prefectureCode": "13"
    },
    {
        "latitude": "35.633333",
        "longitude": "139.741667",
        "id": "13103510",
        "bureauName": "第一京浜高輪",
        "location": "港区高輪２－２０",
        "measuringStationType": "自排局",
        "contactInformation": "東京都",
        "prefectureCode": "13"
    },
    {
        "latitude": "35.677778",
        "longitude": "139.716667",
        "id": "13104010",
        "bureauName": "国設東京（新宿）",
        "location": "新宿区内藤町１１",
        "measuringStationType": "一般局",
        "contactInformation": "環境省",
        "prefectureCode": "13"
    },
    {
        "latitude": "35.681389",
        "longitude": "139.718611",
        "id": "13104540",
        "bureauName": "国設新宿",
        "location": "新宿区内藤町１１",
        "measuringStationType": "自排局",
        "contactInformation": "環境省",
        "prefectureCode": "13"
    },
    {
        "latitude": "35.713889",
        "longitude": "139.705556",
        "id": "13104550",
        "bureauName": "新目白通り下落合",
        "location": "新宿区下落合二丁目２番地先",
        "measuringStationType": "自排局",
        "contactInformation": "東京都",
        "prefectureCode": "13"
    },
    {
        "latitude": "35.730556",
        "longitude": "139.758333",
        "id": "13105010",
        "bureauName": "文京区本駒込",
        "location": "文京区本駒込四丁目35番15号",
        "measuringStationType": "一般局",
        "contactInformation": "東京都",
        "prefectureCode": "13"
    },
    {
        "latitude": "35.725000",
        "longitude": "139.797222",
        "id": "13106520",
        "bureauName": "明治通り大関横丁",
        "location": "台東区三ノ輪２－５地先",
        "measuringStationType": "自排局",
        "contactInformation": "東京都",
        "prefectureCode": "13"
    },
    {
        "latitude": "35.716667",
        "longitude": "139.816667",
        "id": "13107520",
        "bureauName": "水戸街道東向島",
        "location": "墨田区東向島１－３４",
        "measuringStationType": "自排局",
        "contactInformation": "東京都",
        "prefectureCode": "13"
    },
    {
        "latitude": "35.686111",
        "longitude": "139.830556",
        "id": "13108010",
        "bureauName": "江東区大島",
        "location": "江東区大島３－１－３",
        "measuringStationType": "一般局",
        "contactInformation": "東京都",
        "prefectureCode": "13"
    },
    {
        "latitude": "35.630556",
        "longitude": "139.780556",
        "id": "13108020",
        "bureauName": "港区台場",
        "location": "港区台場１－３－１",
        "measuringStationType": "一般局",
        "contactInformation": "東京都",
        "prefectureCode": "13"
    },
    {
        "latitude": "35.694444",
        "longitude": "139.838889",
        "id": "13108520",
        "bureauName": "京葉道路亀戸",
        "location": "江東区亀戸７－４２",
        "measuringStationType": "自排局",
        "contactInformation": "東京都",
        "prefectureCode": "13"
    },
    {
        "latitude": "35.647222",
        "longitude": "139.813889",
        "id": "13108530",
        "bureauName": "三ツ目通り辰巳",
        "location": "江東区辰巳一丁目９番地先",
        "measuringStationType": "自排局",
        "contactInformation": "東京都",
        "prefectureCode": "13"
    },
    {
        "latitude": "35.608333",
        "longitude": "139.725000",
        "id": "13109010",
        "bureauName": "品川区豊町",
        "location": "品川区豊町２－１－２０",
        "measuringStationType": "一般局",
        "contactInformation": "東京都",
        "prefectureCode": "13"
    },
    {
        "latitude": "35.597222",
        "longitude": "139.755556",
        "id": "13109030",
        "bureauName": "品川区八潮",
        "location": "品川区八潮５－１１－１７",
        "measuringStationType": "一般局",
        "contactInformation": "東京都",
        "prefectureCode": "13"
    },
    {
        "latitude": "35.613889",
        "longitude": "139.744444",
        "id": "13109510",
        "bureauName": "北品川交差点",
        "location": "品川区北品川３－１１－２２",
        "measuringStationType": "自排局",
        "contactInformation": "東京都",
        "prefectureCode": "13"
    },
    {
        "latitude": "35.616667",
        "longitude": "139.722222",
        "id": "13109520",
        "bureauName": "中原口交差点",
        "location": "品川区西五反田７－２５－１",
        "measuringStationType": "自排局",
        "contactInformation": "東京都",
        "prefectureCode": "13"
    },
    {
        "latitude": "35.616667",
        "longitude": "139.686111",
        "id": "13110010",
        "bureauName": "目黒区碑文谷",
        "location": "目黒区碑文谷４－１９－２５",
        "measuringStationType": "一般局",
        "contactInformation": "東京都",
        "prefectureCode": "13"
    },
    {
        "latitude": "35.650000",
        "longitude": "139.691667",
        "id": "13110510",
        "bureauName": "山手通り大坂橋",
        "location": "目黒区青葉台３－６",
        "measuringStationType": "自排局",
        "contactInformation": "東京都",
        "prefectureCode": "13"
    },
    {
        "latitude": "35.620278",
        "longitude": "139.681667",
        "id": "13110530",
        "bureauName": "環七通り柿の木坂",
        "location": "目黒区柿の木坂１－１－４",
        "measuringStationType": "自排局",
        "contactInformation": "東京都",
        "prefectureCode": "13"
    },
    {
        "latitude": "35.555556",
        "longitude": "139.741667",
        "id": "13111010",
        "bureauName": "大田区東糀谷",
        "location": "大田区東糀谷１－２１－１５",
        "measuringStationType": "一般局",
        "contactInformation": "東京都",
        "prefectureCode": "13"
    },
    {
        "latitude": "35.591667",
        "longitude": "139.713889",
        "id": "13111520",
        "bureauName": "環七通り松原橋",
        "location": "大田区中馬込２－１７先",
        "measuringStationType": "自排局",
        "contactInformation": "東京都",
        "prefectureCode": "13"
    },
    {
        "latitude": "35.597222",
        "longitude": "139.697222",
        "id": "13111530",
        "bureauName": "中原街道南千束",
        "location": "大田区南千束１－３３－１",
        "measuringStationType": "自排局",
        "contactInformation": "東京都",
        "prefectureCode": "13"
    },
    {
        "latitude": "35.644444",
        "longitude": "139.655556",
        "id": "13112010",
        "bureauName": "世田谷区世田谷",
        "location": "世田谷区世田谷４－２１－２７",
        "measuringStationType": "一般局",
        "contactInformation": "東京都",
        "prefectureCode": "13"
    },
    {
        "latitude": "35.633333",
        "longitude": "139.666667",
        "id": "13112510",
        "bureauName": "玉川通り上馬",
        "location": "世田谷区上馬４－１－３",
        "measuringStationType": "自排局",
        "contactInformation": "東京都",
        "prefectureCode": "13"
    },
    {
        "latitude": "35.661111",
        "longitude": "139.616667",
        "id": "13112520",
        "bureauName": "環八通り八幡山",
        "location": "世田谷区粕谷２－１９",
        "measuringStationType": "自排局",
        "contactInformation": "東京都",
        "prefectureCode": "13"
    },
    {
        "latitude": "35.661111",
        "longitude": "139.702778",
        "id": "13113010",
        "bureauName": "渋谷区宇田川町",
        "location": "渋谷区宇田川町１－１",
        "measuringStationType": "一般局",
        "contactInformation": "東京都",
        "prefectureCode": "13"
    },
    {
        "latitude": "35.669444",
        "longitude": "139.663889",
        "id": "13113510",
        "bureauName": "甲州街道大原",
        "location": "渋谷区笹塚１－６４－１９",
        "measuringStationType": "自排局",
        "contactInformation": "東京都",
        "prefectureCode": "13"
    },
    {
        "latitude": "35.716667",
        "longitude": "139.647222",
        "id": "13114010",
        "bureauName": "中野区若宮",
        "location": "中野区若宮三丁目53番",
        "measuringStationType": "一般局",
        "contactInformation": "東京都",
        "prefectureCode": "13"
    },
    {
        "latitude": "35.686111",
        "longitude": "139.605556",
        "id": "13115010",
        "bureauName": "杉並区久我山",
        "location": "杉並区久我山５－３６－１７",
        "measuringStationType": "一般局",
        "contactInformation": "東京都",
        "prefectureCode": "13"
    },
    {
        "latitude": "35.716667",
        "longitude": "139.622222",
        "id": "13115550",
        "bureauName": "早稲田通り下井草",
        "location": "杉並区下井草四丁目３番１号",
        "measuringStationType": "自排局",
        "contactInformation": "東京都",
        "prefectureCode": "13"
    },
    {
        "latitude": "35.763889",
        "longitude": "139.738889",
        "id": "13117520",
        "bureauName": "北本通り王子",
        "location": "北区王子５丁目２９番",
        "measuringStationType": "自排局",
        "contactInformation": "東京都",
        "prefectureCode": "13"
    },
    {
        "latitude": "35.730556",
        "longitude": "139.791667",
        "id": "13118010",
        "bureauName": "荒川区南千住",
        "location": "荒川区南千住１－４－１１",
        "measuringStationType": "一般局",
        "contactInformation": "東京都",
        "prefectureCode": "13"
    },
    {
        "latitude": "35.753611",
        "longitude": "139.707500",
        "id": "13119010",
        "bureauName": "板橋区氷川町",
        "location": "板橋区氷川町１３－１",
        "measuringStationType": "一般局",
        "contactInformation": "東京都",
        "prefectureCode": "13"
    },
    {
        "latitude": "35.758333",
        "longitude": "139.708333",
        "id": "13119510",
        "bureauName": "中山道大和町",
        "location": "板橋区大和町１４－１２",
        "measuringStationType": "自排局",
        "contactInformation": "東京都",
        "prefectureCode": "13"
    },
    {
        "latitude": "35.761111",
        "longitude": "139.666667",
        "id": "13120010",
        "bureauName": "練馬区北町",
        "location": "練馬区北町１－１４－１１",
        "measuringStationType": "一般局",
        "contactInformation": "東京都",
        "prefectureCode": "13"
    },
    {
        "latitude": "35.733333",
        "longitude": "139.602778",
        "id": "13120020",
        "bureauName": "練馬区石神井台",
        "location": "練馬区石神井町５－２４地先",
        "measuringStationType": "一般局",
        "contactInformation": "東京都",
        "prefectureCode": "13"
    },
    {
        "latitude": "35.777778",
        "longitude": "139.780556",
        "id": "13121010",
        "bureauName": "足立区西新井",
        "location": "足立区西新井６－２１－３",
        "measuringStationType": "一般局",
        "contactInformation": "東京都",
        "prefectureCode": "13"
    },