緯度,経度,測定局コード,測定局名称,所在地,測定局種別,問い合わせ先,都道府県コード
43.062222,141.354167,01101010,センター,札幌市中央区北１西２,一般局,札幌市,01
43.062222,141.353889,01101520,北１条,札幌市中央区北１西２,自排局,札幌市,01
43.041111,141.343889,01101540,南１４条,札幌市中央区南１４条西１０丁目,自排局,札幌市,01
43.146944,141.371389,01102010,篠路,札幌市北区篠路４－９,一般局,札幌市,01
43.083611,141.358333,01103010,東,札幌市東区北１８東５,一般局,札幌市,01
43.104167,141.373611,01103520,東１８丁目,札幌市東区北３３東１８,自排局,札幌市,01
43.068611,141.414444,01104030,北白石,札幌市白石区菊水元町８－３,一般局,札幌市,01
43.023889,141.427500,01105010,東月寒,札幌市豊平区月寒東４－１８,一般局,札幌市,01
43.031667,141.395833,01105520,月寒中央,札幌市豊平区月寒中央通７丁目,自排局,札幌市,01
43.088611,141.285833,01107020,発寒,札幌市西区発寒５－７,一般局,札幌市,01
43.123333,141.245000,01107030,手稲,札幌市手稲区前田２－１２,一般局,札幌市,01
43.041944,141.464722,01108010,厚別,札幌市厚別区厚別中央４－３,一般局,札幌市,01
38.298333,140.947778,04201020,岩切,仙台市宮城野区岩切字三所南８８－１,一般局,仙台市,04
38.287778,140.914444,04201030,鶴谷,仙台市宮城野区鶴ヶ谷３－１７－１,一般局,仙台市,04
38.216389,140.893333,04201050,長町,仙台市太白区郡山６－５－１,一般局,仙台市,04
38.293056,140.842778,04201060,中山,仙台市青葉区中山６－１６－１,一般局,仙台市,04
38.264722,140.976389,04201070,中野,仙台市宮城野区白鳥1-32-1,一般局,仙台市,04
38.237778,140.946389,04201080,七郷,仙台市若林区荒井字堀添５３－２,一般局,仙台市,04
38.277222,140.973889,04201210,福室,仙台市宮城野区福室５－１６－１,一般局,仙台市,04
38.217778,140.831111,04201220,山田,仙台市太白区山田北前町３６－１,一般局,仙台市,04
38.256667,140.901944,04201230,榴岡,仙台市宮城野区五輪１－２－３,一般局,仙台市,04
38.264444,140.914444,04201540,苦竹,仙台市宮城野区原町３ー７,自排局,仙台市,04
38.268056,140.866667,04201550,木町,仙台市青葉区木町通１－７－３６,自排局,仙台市,04
38.248056,140.884722,04201560,五橋,仙台市若林区清水小路３－１,自排局,仙台市,04
38.311944,141.025556,04203010,塩釜,塩竃市旭町1-1,一般局,宮城県,04
38.313333,141.031389,04203510,塩釜自排,塩竃市中の島１－９,自排局,宮城県,04
38.556944,140.978611,04204020,古川2,大崎市古川旭４－１－１,一般局,宮城県,04
38.568333,140.981944,04204510,古川自排,大崎市李埣３－１－３,自排局,宮城県,04
38.900000,141.574167,04205020,気仙沼,気仙沼市笹ヶ陣３－１,一般局,宮城県,04
37.999444,140.620278,04206010,白石,白石市南町１－２－７９,一般局,宮城県,04
38.171111,140.893333,04207510,名取自排,名取市増田５－１８－３２,自排局,宮城県,04
38.108056,140.870833,04211010,岩沼,岩沼市中央３丁目１－１３,一般局,宮城県,04
38.055278,140.768889,04323010,柴田,柴田郡柴田町船岡中央２－３－４５,一般局,宮城県,04
37.854167,140.823056,04341010,丸森,伊具郡丸森町大内字南平１９３－６,一般局,宮城県,04
38.387222,141.076389,04401010,松島,宮城郡松島町高城字迎山３－５,一般局,宮城県,04
38.330278,140.982222,04406010,利府,宮城郡利府町中央2-４,一般局,宮城県,04
38.443611,140.890556,04421010,大和,黒川郡大和町吉岡字町裏３２,一般局,宮城県,04
38.550556,141.175556,04501010,国設箟岳,遠田郡涌谷町小塚字桜清水二1-5,一般局,宮城県,04
38.735000,141.020833,04521010,築館,栗原市築館藤木５－１,一般局,宮城県,04
38.688611,141.213889,04541010,迫,登米市迫町佐沼字北散田１４７,一般局,宮城県,04
38.421111,141.219167,04562020,矢本２,東松島市矢本字町裏１５４,一般局,宮城県,04
38.267778,140.344444,06201090,山形銅町,山形市銅町２－１０－８,一般局,山形県,06
38.266389,140.365278,06201510,山形下山家,山形市下山家８１－５,自排局,山形県,06
37.916667,140.116944,06202010,米沢金池,米沢市金池２－９,一般局,山形県,06
38.739167,139.826944,06203010,鶴岡錦町,鶴岡市錦町6-60,一般局,山形県,06
38.910833,139.852222,06204050,酒田若浜,酒田市若浜町１－４０,一般局,山形県,06
38.754167,140.301944,06205010,新庄下田,新庄市下田町８－１,一般局,山形県,06
38.843889,139.906389,06422010,余目,東田川郡庄内町大字余目字猿田８７,一般局,山形県,06
37.773333,140.493611,07201180,古川,福島市古川44-2,一般局,福島市,07
37.737778,140.467500,07201190,南町,福島市郷野目字向町17-2,一般局,福島市,07
37.764167,140.451111,07201200,森合,福島市森合字中谷地4-4,一般局,福島市,07
37.491389,139.927222,07202070,会津若松,会津若松市西栄町４－６１,一般局,福島県,07
37.388056,140.399167,07203130,芳賀,郡山市芳賀２丁目６番１号,一般局,郡山市,07
37.387778,140.382500,07203140,堤下,郡山市堤下町４ノ４,一般局,郡山市,07
37.444722,140.396389,07203150,日和田,郡山市日和田町日向６０,一般局,郡山市,07
37.353611,140.367500,07203180,安積,郡山市安積３－３７,一般局,郡山市,07
37.390000,140.343611,07203520,台新,郡山市台新１－８０４,自排局,郡山市,07
36.891111,140.784722,07204020,上中田,いわき市錦町重殿１５,一般局,いわき市,07
36.907778,140.778333,07204030,花ノ井,いわき市錦町鬼越下６４,一般局,いわき市,07
36.933333,140.866111,07204070,下川,いわき市泉町下川字宿ノ川１９,一般局,いわき市,07
36.949722,140.871944,07204090,滝尻,いわき市泉町滝尻字高見坪１,一般局,いわき市,07
36.960000,140.894722,07204110,大原,いわき市小名浜大原字六反田２２,一般局,いわき市,07
36.943611,140.882222,07204160,中原,いわき市小名浜字中原５－１,一般局,いわき市,07
36.925833,140.825000,07204170,金山,いわき市金山町朝日台１,一般局,いわき市,07
37.055556,140.888889,07204210,揚土,いわき市平字揚土５,一般局,いわき市,07
37.051389,140.897222,07204510,平,いわき市平字正内町２２,自排局,いわき市,07
37.123889,140.205000,07205050,白河,白河市寺小路28,一般局,福島県,07
37.636944,140.953889,07206050,原町１,南相馬市仲町２丁目１６５,一般局,福島県,07
37.284167,140.375556,07207010,須賀川,須賀川市大町１０８－１,一般局,福島県,07
37.801389,140.923333,07209080,相馬１,相馬市中村字高池前４３,一般局,福島県,07
37.213333,140.996667,07541010,広野１,双葉郡広野町大字下北迫字岩作６７－１,一般局,福島県,07
37.262778,140.993056,07542010,楢葉,双葉郡楢葉町大字下小塙字麦入３１,一般局,福島県,07
37.355833,140.997222,07543010,富岡,双葉郡富岡町字夜の森南４丁目４２,一般局,福島県,07
37.438333,141.009167,07546010,双葉,双葉郡双葉町大字新山字清戸迫１,一般局,福島県,07
37.870556,140.917500,07561020,新地１,相馬郡新地町谷地小屋字愛宕３７－２,一般局,福島県,07
37.561944,140.997222,07563010,小高,南相馬市東町２丁目７８,一般局,福島県,07
36.388889,140.429722,08201030,水戸石川,水戸市石川一丁目４０４３－８,一般局,茨城県,08
36.316667,140.502778,08201040,水戸東部,水戸市元石川町２２９７－１,一般局,茨城県,08
36.377778,140.461389,08201510,水戸大工町,水戸市大工町１－６,自排局,茨城県,08
36.596944,140.654722,08202020,日立市役所,日立市宮田町１－４４－１,一般局,茨城県,08
36.554167,140.628889,08202050,日立多賀,日立市末広町１－２,一般局,茨城県,08
36.067778,140.194167,08203010,土浦保健所,土浦市下高津２－７－４６,一般局,茨城県,08
36.038333,140.168611,08203520,土浦中村南,土浦市中村南１丁目１４１３番地－１,自排局,茨城県,08
36.200833,139.718889,08204010,古河保健所,古河市北町６－２２,一般局,茨城県,08
36.199167,140.288611,08205020,石岡杉並,石岡市杉並２－１－２,一般局,茨城県,08
35.904167,140.196667,08208010,竜ヶ崎保健所,龍ケ崎市光順田２９８３－１,一般局,茨城県,08
36.181389,139.963333,08210010,下妻,下妻市下妻乙２０９,一般局,茨城県,08
36.030833,139.994722,08211010,常総,常総市水海道森下町４４７４－２,一般局,茨城県,08
36.521667,140.519722,08212010,常陸太田,常陸太田市稲木町６６０,一般局,茨城県,08
36.393056,140.537500,08213010,常陸那珂勝田,ひたちなか市東石川２－１０－１,一般局,茨城県,08
36.711944,140.714722,08214010,高萩本町,高萩市本町２－３７,一般局,茨城県,08
36.778056,140.736944,08215010,北茨城中郷,北茨城市中郷町上桜井５３－５,一般局,茨城県,08
36.382778,140.241944,08216010,笠間,笠間市石井７１７,一般局,茨城県,08
35.908333,140.052778,08217010,取手市役所,取手市大字寺田５１３９,一般局,茨城県,08
36.101667,140.023611,08220010,つくば高野,つくば市高野１１９７－２０,一般局,茨城県,08
36.381389,140.504444,08221010,ひたちなか,ひたちなか市市毛８２３－１,一般局,茨城県,08
36.313889,140.423611,08302010,東茨城大戸,東茨城郡茨城町大戸１７３７,一般局,茨城県,08
36.437222,140.593056,08341010,常陸那珂東海,那珂郡東海村照沼１１４５,一般局,茨城県,08
36.558333,140.405833,08344010,大宮野中,常陸大宮市野中町３０８３,一般局,茨城県,08
36.156111,140.521111,08402010,鉾田,鉾田市大字鉾田１３６７－３,一般局,茨城県,08
35.961667,140.625278,08405010,鹿島宮中,鹿嶋市城山２－２－１９,一般局,茨城県,08
35.971667,140.659722,08405020,鹿島高天原,鹿嶋市大字港ヶ丘２丁目１１５０－４１,一般局,茨城県,08
35.912500,140.630000,08406010,神栖下幡木,神栖市大字下幡木４１３０,一般局,茨城県,08
35.895000,140.643611,08406030,鹿島事務所,神栖市大野原４－７,一般局,茨城県,08
35.885556,140.670000,08406050,神栖消防,神栖市大字溝口字甲の池４９９１－５,一般局,茨城県,08
35.867222,140.673611,08406060,神栖一貫野,神栖市大字知手１００－３,一般局,茨城県,08
35.848889,140.706111,08406080,神栖横瀬,神栖市大字横瀬８６６－１,一般局,茨城県,08
35.835000,140.743889,08407010,波崎太田,神栖市大字須田２３４０－１,一般局,茨城県,08
35.936389,140.570833,08423040,潮来保健所,潮来市大字大洲１４４６－１,一般局,茨城県,08
35.950556,140.322222,08441010,江戸崎公民館,稲敷市江戸崎字大宿甲３２１３,一般局,茨城県,08
36.175833,139.758889,08541010,古河市役所,古河市下大野谷地川２４５６,一般局,茨城県,08
35.947500,139.980278,08561510,守谷,守谷市大柏９３７－２,自排局,茨城県,08
36.484444,139.867222,09201060,雀宮中学校,宇都宮市雀宮７丁目２８番１６号,一般局,宇都宮市,09
36.504722,139.945833,09201070,瑞穂野北小学校,宇都宮市下桑島町４６５,一般局,宇都宮市,09
36.587500,139.859722,09201080,細谷小学校,宇都宮市細谷１丁目４番３８号,一般局,宇都宮市,09
36.563056,139.923333,09201100,泉が丘小学校,宇都宮市泉が丘７－１２－１４,一般局,宇都宮市,09
36.531111,139.982778,09201110,清原,宇都宮市上篭谷町１１４５,一般局,宇都宮市,09
36.556944,139.884444,09201120,中央,宇都宮市中央１－１－１３,一般局,宇都宮市,09
36.558333,139.885833,09201570,大通り,宇都宮市馬場通り１－１－１１,自排局,宇都宮市,09
36.337222,139.452778,09202010,足利市役所,足利市本城３－２１４５,一般局,栃木県,09
36.379167,139.733889,09203010,栃木市役所,栃木市入舟町７－２６,一般局,栃木県,09
36.391389,139.782222,09203520,栃木市平柳町交差点,栃木市平柳町２丁目,自排局,栃木県,09
36.564167,139.747500,09205010,鹿沼市役所,鹿沼市今宮町１６８８－１,一般局,栃木県,09
36.723333,139.683333,09207010,日光市今市小学校,日光市今市５３１,一般局,栃木県,09
36.276111,139.805000,09208010,小山市立大谷中学校,小山市横倉新田97,一般局,栃木県,09
36.437222,140.015833,09209010,真岡市役所,真岡市荒町５１９１,一般局,栃木県,09
36.803056,139.926944,09211010,矢板市役所,矢板市本町５－４,一般局,栃木県,09
36.759722,139.946111,09211510,矢板市大谷津歩道橋,矢板市片岡字沢橋２１６６－３９,自排局,栃木県,09
36.965278,140.057222,09212010,那須塩原市黒磯保健センター,那須塩原市黒磯幸町８－１０,一般局,栃木県,09
36.440000,139.917778,09301010,上三川町役場,河内郡上三川町しらさぎ１－１,一般局,栃木県,09
36.230278,139.744167,09364010,野木町役場,下都賀郡野木町丸林６２９,一般局,栃木県,09
36.882222,139.715000,09383010,日光市役所藤原行政センター,日光市鬼怒川温泉大原1406-1,一般局,栃木県,09
36.653889,140.153333,09402010,県南那須庁舎,那須烏山市中央１－６－９２,一般局,栃木県,09
36.338056,139.012500,10202010,高崎勤労ホーム駐車場,高崎市並榎町１１７－２０,一般局,群馬県,10
36.409444,139.343056,10203010,桐生市立東小学校,桐生市仲町２－４－２１,一般局,群馬県,10
36.311111,139.197222,10204030,伊勢崎市立南小学校,伊勢崎市上泉町３１０,一般局,群馬県,10
36.286667,139.384722,10205010,太田市立中央小学校,太田市飯田町１１６６,一般局,群馬県,10
36.645833,139.042778,10206010,沼田市立沼田小学校,沼田市西倉内町７４６,一般局,群馬県,10
36.249722,139.549167,10207010,館林市民センター,館林市仲町１４－１,一般局,群馬県,10
36.495833,138.994167,10208010,渋川第１測定局,渋川市渋川４２６－１,一般局,群馬県,10
36.259167,138.898333,10210010,富岡市立富岡小学校,富岡市富岡１３５９,一般局,群馬県,10
36.320278,138.916944,10211010,安中第１測定,安中市野殿１０２６－４,一般局,群馬県,10
36.326667,138.930833,10211040,岩野谷公民館,安中市岩井６１７－１,一般局,群馬県,10
36.330556,138.896389,10211060,安中市立安中小学校,安中市安中３－１０－４３,一般局,群馬県,10
36.577500,138.828611,10423010,東吾妻町立東吾妻中学校,吾妻郡東吾妻町原町５２３０,一般局,群馬県,10
35.886944,139.489444,11201030,川越市高階,川越市砂新田１－１５,一般局,川越市,11
35.924444,139.490278,11201040,川越市川越,川越市宮下町２－７－４,一般局,川越市,11
35.916111,139.430000,11201050,川越市霞ケ関,川越市伊勢原町５－４－５,一般局,川越市,11
35.903333,139.496111,11201510,川越市仙波,川越市仙波町４－１８－１５,自排局,川越市,11
36.144722,139.391389,11202040,熊谷,熊谷市宮町２－４７－１,一般局,埼玉県,11
36.160278,139.398333,11202510,熊谷肥塚自排,熊谷市肥塚５９６－１,自排局,埼玉県,11
35.796667,139.751111,11203040,川口市南平,川口市川口市東領家2-27-1,一般局,川口市,11
35.859167,139.649167,11204010,さいたま市役所,さいたま市浦和区常盤６－４－４,一般局,さいたま市,11
35.902778,139.634167,11205120,さいたま市大宮,さいたま市大宮区大門町３－３,一般局,さいたま市,11
36.137500,139.472500,11206020,行田,行田市長野２－３－１７,一般局,埼玉県,11
35.985000,139.083611,11207010,秩父,秩父市日野田町１－１－４４,一般局,埼玉県,11
35.800556,139.522500,11208060,所沢市東所沢,所沢市東所沢３－２２－８,一般局,所沢市,11
35.782222,139.443056,11208070,所沢市北野,所沢市小手指南1-25-15,一般局,所沢市,11
35.791944,139.474722,11208520,所沢市航空公園,所沢市並木1-13,自排局,所沢市,11
35.802222,139.412500,11208530,所沢市和ヶ原,所沢市和ヶ原1-175-7,自排局,所沢市,11
35.852222,139.331667,11209010,飯能,飯能市双柳75,一般局,埼玉県,11
36.131667,139.608611,11210010,加須,加須市北小浜１０６０－１,一般局,埼玉県,11
36.234444,139.204444,11211010,本庄,本庄市日の出4-2-45,一般局,埼玉県,11
36.028611,139.419167,11212020,東松山,東松山市五領町８番地,一般局,埼玉県,11
36.048889,139.414444,11212520,東松山岩鼻自排,東松山市松山１７２１－１,自排局,埼玉県,11
35.950000,139.701111,11213010,さいたま市岩槻,さいたま市岩槻区本町６－１８９－２,一般局,さいたま市,11
35.968611,139.748889,11214030,春日部,春日部市谷原１－３,一般局,埼玉県,11
35.952778,139.730556,11214510,春日部増戸自排,春日部市増戸７２３－１,自排局,埼玉県,11
35.856389,139.451667,11215010,狭山,狭山市堀兼３６１,一般局,埼玉県,11
36.171389,139.559167,11216010,羽生,羽生市藤井下組１１４,一般局,埼玉県,11
36.062500,139.524444,11217010,鴻巣,鴻巣市中央１－１,一般局,埼玉県,11
36.058333,139.522500,11217510,鴻巣天神自排,鴻巣市天神１－１－２８,自排局,埼玉県,11
36.183889,139.282778,11218010,深谷,深谷市上野台５０８,一般局,埼玉県,11
36.192500,139.296667,11218510,深谷原郷自排,深谷市原郷８０,自排局,埼玉県,11
35.973889,139.574444,11219020,上尾,上尾市浅間台３－３５,一般局,埼玉県,11
35.826111,139.798889,11221050,草加市西町,草加市西町４２５－２,一般局,草加市,11
35.835556,139.793056,11221510,草加市花栗自排,草加市花栗4-15-12,自排局,草加市,11
35.844722,139.777222,11221520,草加市原町自排,草加市原町２－７－１,自排局,草加市,11
35.893056,139.798611,11222020,越谷市東越谷,越谷市東越谷３－１４,一般局,越谷市,11
35.815556,139.676389,11224010,戸田,戸田市新曽1093,一般局,埼玉県,11
35.817778,139.646111,11224510,戸田美女木自排,戸田市美女木５－２－１６,自排局,埼玉県,11
35.827778,139.399167,11225010,入間,入間市東町１-１６,一般局,埼玉県,11
35.774722,139.621389,11229010,和光,和光市諏訪３－２０,一般局,埼玉県,11
35.776389,139.617778,11229510,和光新倉自排,和光市新倉１－３１－１０,自排局,埼玉県,11
35.776111,139.558889,11230070,新座,新座市本多１－９－２２,一般局,埼玉県,11
36.061667,139.664722,11232010,久喜,久喜市江面８５,一般局,埼玉県,11
36.072222,139.668889,11232510,久喜本町自排,久喜市本町７－９１３－１,自排局,埼玉県,11
35.819444,139.842500,11234010,八潮,八潮市中央１－２－１,一般局,埼玉県,11
35.853611,139.552222,11235010,富士見,富士見市鶴馬１８００－１,一般局,埼玉県,11
35.841111,139.885000,11237020,三郷,三郷市三郷３－２－１,一般局,埼玉県,11
35.972778,139.649444,11238010,蓮田,蓮田市蓮田５－３０,一般局,埼玉県,11
35.967778,139.404722,11239010,坂戸,坂戸市芦山町１１,一般局,埼玉県,11
36.071667,139.735000,11240010,幸手,幸手市幸手２２６２,一般局,埼玉県,11
35.927778,139.403056,11241510,鶴ヶ島自排,鶴ヶ島市太田ヶ谷６１７－１８,自排局,埼玉県,11
35.961944,139.325556,11326010,毛呂山,入間郡毛呂山町目白台2-31-1,一般局,埼玉県,11
35.890000,139.346667,11329010,日高,日高市中鹿山８１,一般局,埼玉県,11
36.057778,139.263611,11343010,小川,比企郡小川町大塚１１０５,一般局,埼玉県,11
36.002222,139.193889,11344010,東秩父,秩父郡東秩父村白石６０１-２,一般局,埼玉県,11
36.189167,139.137500,11382010,本庄児玉,本庄市児玉町児玉１３５５－１,一般局,埼玉県,11
36.220000,139.384722,11403010,熊谷妻沼東,熊谷市妻沼東１－１,一般局,埼玉県,11
36.119167,139.210833,11408510,寄居桜沢自排,大里郡寄居町桜沢２３４－３,自排局,埼玉県,11
36.081111,139.563611,11421010,環境科学国際センター,加須市上種足９１４,一般局,埼玉県,11
35.693889,140.098333,12201010,花見川小学校,千葉市花見川区花見川４－１,一般局,千葉市,12
35.649444,140.067500,12201020,検見川小学校,千葉市花見川区検見川町３－３２２－２３,一般局,千葉市,12
35.664722,140.143056,12201040,山王小学校,千葉市稲毛区山王町１２１,一般局,千葉市,12
35.653889,140.097778,12201050,宮野木,千葉市稲毛区宮野木町９９６－９,一般局,千葉市,12
35.597222,140.181667,12201070,大宮小学校,千葉市若葉区大宮台７－８－１,一般局,千葉市,12
35.628611,140.183611,12201090,千城台わかば小学校,千葉市若葉区千城台北１－４－１,一般局,千葉市,12
35.596389,140.121389,12201120,寒川小学校,千葉市中央区寒川町１－２０５,一般局,千葉市,12
35.567222,140.128889,12201160,福正寺,千葉市中央区今井１－１３－２４,一般局,千葉市,12
35.572222,140.130833,12201180,蘇我保育所,千葉市中央区蘇我２－３－１８,一般局,千葉市,12
35.607500,140.107778,12201200,千葉市役所自排,千葉市中央区千葉港１－１,自排局,千葉市,12
35.610278,140.137778,12201250,都公園,千葉市中央区都町２－１４,一般局,千葉市,12
35.531944,140.260833,12201260,土気,千葉市緑区大椎町１２５１－３１６,一般局,千葉市,12
35.638333,140.117778,12201300,千草自排,千葉市稲毛区千草台２－１３５９－１,自排局,千葉市,12
35.633889,140.069444,12201320,真砂公園,千葉市美浜区真砂１－１１,一般局,千葉市,12
35.609444,140.120000,12201520,葭川自排,千葉市中央区中央２－１－１,自排局,千葉市,12
35.658056,140.098056,12201540,宮野木自排,千葉市花見川区宮野木台４－５２１－１,自排局,千葉市,12
35.628333,140.066389,12201570,真砂自排,千葉市美浜区真砂５－１,自排局,千葉市,12
35.693333,139.960278,12203040,市川二俣,市川市二俣６７８,一般局,市川市,12
35.746944,139.957222,12203080,市川大野,市川市大野２－１８７７,一般局,市川市,12
35.728333,139.909167,12203510,市川市市川（車）,市川市市川２－３３－６,自排局,市川市,12
35.683056,139.919722,12203520,市川行徳（車）,市川市末広１－１－４８,自排局,市川市,12
35.742222,139.995833,12204040,船橋丸山,船橋市丸山５－２５－１,一般局,船橋市,12
35.726111,140.009167,12204050,船橋高根,船橋市高根町２８９５,一般局,船橋市,12
35.728889,140.042222,12204060,船橋高根台,船橋市高根台５－２－１,一般局,船橋市,12
35.695278,140.023889,12204070,船橋前原,船橋市前原西２－２８－１,一般局,船橋市,12
35.757778,140.077778,12204100,船橋豊富,船橋市金堀町５２２－１,一般局,船橋市,12
35.713889,139.959167,12204110,船橋印内,船橋市印内１－２－１,一般局,船橋市,12
35.676111,139.993889,12204140,船橋若松,船橋市若松３－２－３,一般局,船橋市,12
35.696944,139.977222,12204150,船橋南本町,船橋市南本町１０－１,一般局,船橋市,12
35.699722,139.976667,12204520,船橋海神（車）,船橋市海神町３－３９９－１,自排局,船橋市,12
35.688333,139.996111,12204530,船橋日の出（車）,船橋市日の出１－１６,自排局,船橋市,12
35.018333,139.883611,12205030,館山亀ケ原,館山市亀ケ原７５４,一般局,千葉県,12
35.384722,139.925000,12206010,木更津中央,木更津市中央１－１０－１,一般局,千葉県,12
35.417778,139.903056,12206030,木更津畔戸,木更津市畔戸１５２５番地,一般局,千葉県,12
35.377222,139.954167,12206070,木更津清見台,木更津市清見台南１－１５,一般局,千葉県,12
35.338611,139.906389,12206080,木更津畑沢,木更津市畑沢南２－１６－１,一般局,千葉県,12
35.365000,140.070833,12206140,木更津真里谷,木更津市真里谷５２４－３,一般局,千葉県,12
35.370556,139.941389,12206520,木更津請西（車）,木更津市請西２－１－２４,自排局,千葉県,12
35.403889,139.966667,12206530,木更津牛袋（車）,木更津市牛袋５９１－２,自排局,千葉県,12
35.784167,139.906111,12207010,松戸根本,松戸市根本３８７－５,一般局,松戸市,12
35.944444,139.869167,12208010,野田市野田,野田市野田７９４－１,一般局,千葉県,12
35.883889,140.556111,12209010,香取大倉,香取市大倉２１４７－３,一般局,千葉県,12
35.431111,140.289167,12210010,茂原高師,茂原市高師１２４７－６,一般局,千葉県,12
35.770833,140.299722,12211040,成田加良部,成田市加良部５－１１,一般局,千葉県,12
35.775000,140.324722,12211510,成田花崎（車）,成田市花崎町７８９－４,自排局,千葉県,12
35.724444,140.209722,12212040,佐倉江原新田,佐倉市江原新田５４－１,一般局,千葉県,12
35.680833,140.220278,12212520,佐倉山王（車）,佐倉市山王２－３７－４,自排局,千葉県,12
35.551667,140.375278,12213010,東金堀上,東金市堀上１１１,一般局,千葉県,12
35.717222,140.581389,12214010,匝瑳椿,匝瑳市椿９６９－１,一般局,千葉県,12
35.682222,140.035556,12216010,習志野鷺沼,習志野市鷺沼台１－５９１－１,一般局,千葉県,12
35.840556,139.975556,12217020,柏永楽台,柏市永楽台２－８－１,一般局,柏市,12
35.896944,139.966944,12217030,柏大室,柏市大室１２５６,一般局,柏市,12
35.857500,139.968889,12217510,柏旭（車）,柏市旭町３－８３１－３５,自排局,柏市,12
35.892222,139.917500,12217520,柏西原（車）,柏市西原２－１１－２５,自排局,柏市,12
35.175833,140.268889,12218010,勝浦小羽戸,勝浦市小羽戸５８－２,一般局,千葉県,12
35.533611,140.127222,12219010,市原八幡,市原市八幡８３１－２,一般局,市原市,12
35.508889,140.089722,12219030,市原五井,市原市五井５５００－１,一般局,市原市,12
35.475278,140.052778,12219060,市原姉崎,市原市姉崎１８５０,一般局,市原市,12
35.484444,140.080278,12219090,市原廿五里,市原市廿五里５５８,一般局,市原市,12
35.493889,140.183611,12219110,市原潤井戸,市原市潤井戸２２９９－１４,一般局,市原市,12
35.520000,140.154167,12219120,市原辰巳台,市原市辰巳台西５－１０,一般局,市原市,12
35.445278,140.055278,12219140,市原有秋,市原市有秋台西２－３,一般局,市原市,12
35.445278,140.139167,12219180,市原松崎,市原市松崎８２０,一般局,市原市,12
35.523333,140.071389,12219190,市原岩崎西,市原市岩崎西１－８－８,一般局,千葉県,12
35.506667,140.118611,12219200,市原郡本,市原市北国分寺台３－５－１,一般局,市原市,12
35.330000,140.150000,12219380,市原平野,市原市平野１２３,一般局,市原市,12
35.402500,140.146389,12219390,市原奉免,市原市奉免１６６－１,一般局,市原市,12
35.853611,139.906667,12220010,流山平和台,流山市平和台１－３－１４,一般局,千葉県,12
35.713611,140.085000,12221020,八千代高津,八千代市高津４２１－３,一般局,千葉県,12
35.713056,140.116667,12221510,八千代村上（車）,八千代市村上３１０３,自排局,千葉県,12
35.858889,140.079722,12222010,我孫子湖北台,我孫子市湖北台４－３－１,一般局,千葉県,12
35.790556,140.021111,12224040,鎌ケ谷軽井沢,鎌ケ谷市軽井沢２０６０－３２,一般局,千葉県,12
35.780556,140.011111,12224510,鎌ケ谷初富（車）,鎌ケ谷市初富９２４－６,自排局,千葉県,12
35.331667,139.901944,12225010,君津久保,君津市久保２－１１,一般局,千葉県,12
35.340278,139.887778,12225030,君津坂田,君津市坂田５１８,一般局,千葉県,12
35.298333,139.931111,12225070,君津宮下,君津市宮下１－４－１,一般局,千葉県,12
35.339722,139.869167,12225080,君津人見,君津市人見１１５４,一般局,千葉県,12
35.319444,140.056667,12225090,君津俵田,君津市俵田１１１０,一般局,千葉県,12
35.301111,139.972500,12225120,君津糠田,君津市糠田５５,一般局,千葉県,12
35.318889,139.856667,12226010,富津下飯野,富津市下飯野１１３５,一般局,千葉県,12
35.652222,139.914167,12227510,浦安美浜（車）,浦安市美浜４－６,自排局,千葉県,12
35.666111,140.175000,12228010,四街道鹿渡,四街道市鹿渡８０９－２,一般局,千葉県,12
35.669722,140.315278,12230010,八街市八街,八街市八街ほ２０８－１０６,一般局,千葉県,12
35.655556,139.909167,12301020,浦安猫実,浦安市猫実１－２－７,一般局,千葉県,12
36.044444,139.817222,12303010,野田桐ケ作,野田市桐ケ作４１５－１,一般局,千葉県,12
35.838611,140.004722,12305510,柏大津ケ丘（車）,柏市大津ヶ丘２－１,自排局,柏市,12
35.795833,140.047500,12326010,白井七次台,白井市七次台３－２２,一般局,千葉県,12
35.791111,140.135556,12327010,印西高花,印西市高花１－３,一般局,千葉県,12
35.843611,140.249444,12329010,栄安食台,印旛郡栄町安食台４－３４－１,一般局,千葉県,12
35.852500,140.420556,12343010,成田奈土,成田市奈土1044,一般局,千葉県,12
35.844444,140.606111,12344020,香取羽根川,香取市羽根川５５－５,一般局,千葉県,12
35.786389,140.608889,12345020,香取府馬,香取市府馬３４２９－４,一般局,千葉県,12
35.651667,140.487778,12408010,横芝光横芝,山武郡横芝光町横芝１８００,一般局,千葉県,12
35.714444,140.406667,12409010,芝山山田,山武郡芝山町山田１０６５,一般局,千葉県,12
35.344722,140.383333,12421020,一宮東浪見,長生郡一宮町東浪見１５１６－２,一般局,千葉県,12
35.107222,139.838611,12463010,鋸南下佐久間,安房郡鋸南町下佐久間３４５８,一般局,千葉県,12
35.425556,139.957222,12481010,袖ケ浦坂戸市場,袖ケ浦市坂戸市場４４,一般局,千葉県,12
35.453056,140.033056,12481040,袖ケ浦代宿,袖ケ浦市代宿３０５,一般局,千葉県,12
35.413611,140.005833,12481050,袖ケ浦三ッ作,袖ケ浦市三ッ作７４１,一般局,千葉県,12
35.430000,140.022778,12481060,袖ケ浦蔵波,袖ケ浦市蔵波９９５ー７,一般局,千葉県,12
35.361389,140.011389,12481070,袖ケ浦吉野田,袖ケ浦市吉野田１９８,一般局,千葉県,12
35.386944,140.036944,12481080,袖ケ浦横田,袖ケ浦市横田５００,一般局,千葉県,12
35.421111,140.072222,12481090,袖ケ浦川原井,袖ケ浦市川原井１８７１－１１,一般局,千葉県,12
35.444444,140.006944,12481160,袖ケ浦長浦,袖ケ浦市長浦駅前６－１－４,一般局,千葉県,12
35.431667,139.973611,12481510,袖ケ浦福王台(車）,袖ケ浦市福王台４－１０－４,自排局,千葉県,12
35.418333,140.018889,12481520,袖ケ浦大曽根（車）,袖ケ浦市大曽根１９９０,自排局,千葉県,12
35.688889,139.772222,13101010,千代田区神田司町,千代田区神田司町２丁目２番地,一般局,東京都,13
35.672222,139.761111,13101510,日比谷交差点,千代田区,自排局,東京都,13
35.669444,139.756389,13101520,国設霞が関,千代田区,自排局,環境省,13
35.652778,139.783333,13102010,中央区晴海,中央区晴海三丁目６番１号,一般局,東京都,13
35.675000,139.786111,13102510,永代通り新川,中央区新川一丁目３番１号,自排局,東京都,13
35.633333,139.741667,13103510,第一京浜高輪,港区高輪２－２０,自排局,東京都,13
35.677778,139.716667,13104010,国設東京（新宿）,新宿区内藤町１１,一般局,環境省,13
35.681389,139.718611,13104540,国設新宿,新宿区内藤町１１,自排局,環境省,13
35.713889,139.705556,13104550,新目白通り下落合,新宿区下落合二丁目２番地先,自排局,東京都,13
35.730556,139.758333,13105010,文京区本駒込,文京区本駒込四丁目35番15号,一般局,東京都,13
35.725000,139.797222,13106520,明治通り大関横丁,台東区三ノ輪２－５地先,自排局,東京都,13
35.716667,139.816667,13107520,水戸街道東向島,墨田区東向島１－３４,自排局,東京都,13
35.686111,139.830556,13108010,江東区大島,江東区大島３－１－３,一般局,東京都,13
35.630556,139.780556,13108020,港区台場,港区台場１－３－１,一般局,東京都,13
35.694444,139.838889,13108520,京葉道路亀戸,江東区亀戸７－４２,自排局,東京都,13
35.647222,139.813889,13108530,三ツ目通り辰巳,江東区辰巳一丁目９番地先,自排局,東京都,13
35.608333,139.725000,13109010,品川区豊町,品川区豊町２－１－２０,一般局,東京都,13
35.597222,139.755556,13109030,品川区八潮,品川区八潮５－１１－１７,一般局,東京都,13
35.613889,139.744444,13109510,北品川交差点,品川区北品川３－１１－２２,自排局,東京都,13
35.616667,139.722222,13109520,中原口交差点,品川区西五反田７－２５－１,自排局,東京都,13
35.616667,139.686111,13110010,目黒区碑文谷,目黒区碑文谷４－１９－２５,一般局,東京都,13
35.650000,139.691667,13110510,山手通り大坂橋,目黒区青葉台３－６,自排局,東京都,13
35.620278,139.681667,13110530,環七通り柿の木坂,目黒区柿の木坂１－１－４,自排局,東京都,13
35.555556,139.741667,13111010,大田区東糀谷,大田区東糀谷１－２１－１５,一般局,東京都,13
35.591667,139.713889,13111520,環七通り松原橋,大田区中馬込２－１７先,自排局,東京都,13
35.597222,139.697222,13111530,中原街道南千束,大田区南千束１－３３－１,自排局,東京都,13
35.644444,139.655556,13112010,世田谷区世田谷,世田谷区世田谷４－２１－２７,一般局,東京都,13
35.633333,139.666667,13112510,玉川通り上馬,世田谷区上馬４－１－３,自排局,東京都,13
35.661111,139.616667,13112520,環八通り八幡山,世田谷区粕谷２－１９,自排局,東京都,13
35.661111,139.702778,13113010,渋谷区宇田川町,渋谷区宇田川町１－１,一般局,東京都,13
35.669444,139.663889,13113510,甲州街道大原,渋谷区笹塚１－６４－１９,自排局,東京都,13
35.716667,139.647222,13114010,中野区若宮,中野区若宮三丁目53番,一般局,東京都,13
35.686111,139.605556,13115010,杉並区久我山,杉並区久我山５－３６－１７,一般局,東京都,13
35.716667,139.622222,13115550,早稲田通り下井草,杉並区下井草四丁目３番１号,自排局,東京都,13
35.763889,139.738889,13117520,北本通り王子,北区王子５丁目２９番,自排局,東京都,13
35.730556,139.791667,13118010,荒川区南千住,荒川区南千住１－４－１１,一般局,東京都,13
35.753611,139.707500,13119010,板橋区氷川町,板橋区氷川町１３－１,一般局,東京都,13
35.758333,139.708333,13119510,中山道大和町,板橋区大和町１４－１２,自排局,東京都,13
35.761111,139.666667,13120010,練馬区北町,練馬区北町１－１４－１１,一般局,東京都,13
35.733333,139.602778,13120020,練馬区石神井台,練馬区石神井町５－２４地先,一般局,東京都,13
35.777778,139.780556,13121010,足立区西新井,足立区西新井６－２１－３,一般局,東京都,13
35.772222,139.805556,13121510,日光街道梅島,足立区中央本町１－１７,自排局,東京都,13
35.741667,139.880556,13122010,葛飾区鎌倉,葛飾区鎌倉２丁目２１番４号,一般局,東京都,13
35.761111,139.855556,13122520,環七通り亀有,葛飾区亀有二丁目７５番１号,自排局,東京都,13
35.705556,139.888889,13123010,江戸川区鹿骨,江戸川区鹿骨１－１５－１,一般局,東京都,13
35.677778,139.880556,13123020,江戸川区春江町,江戸川区春江町５－３ー３,一般局,東京都,13
35.650000,139.872222,13123030,江戸川区南葛西,江戸川区南葛西１－１１－１,一般局,東京都,13
35.641667,139.341667,13201020,八王子市片倉町,八王子市片倉町５５３番地,一般局,東京都,13
35.691667,139.422222,13202010,立川市泉町,立川市泉町１１５６－９,一般局,東京都,13
35.711111,139.558333,13203010,武蔵野市関前,武蔵野市関前３－２－２０,一般局,東京都,13
35.708333,139.541667,13203510,五日市街道武蔵境,武蔵野市関前５－２１,自排局,東京都,13
35.688889,139.563889,13204510,連雀通り下連雀,三鷹市下連雀７丁目１５番４号,自排局,東京都,13
35.786111,139.277778,13205010,青梅市東青梅,青梅市東青梅１－１１－１,一般局,東京都,13
35.665556,139.442222,13206010,府中市四谷,府中市四谷４－１６－４,一般局,東京都,13
35.663889,139.558333,13208020,調布市深大寺南町,調布市深大寺南町４－１６－２３,一般局,東京都,13
35.548889,139.451944,13209010,町田市金森,町田市金森1-22,一般局,東京都,13
35.588889,139.486111,13209020,町田市能ケ谷町,町田市能ケ谷町１５１２,一般局,東京都,13
35.697222,139.505556,13210010,小金井市本町,小金井市本町６－６－３,一般局,東京都,13
35.725000,139.480556,13211010,小平市小川町,小平市小川町２－１３２５,一般局,東京都,13
35.652778,139.436111,13212520,川崎街道百草園,日野市落川９４６番地先,自排局,東京都,13
35.750000,139.469444,13213510,新青梅街道東村山,東村山市本町１－１０先,自排局,東京都,13
35.677778,139.436111,13215510,甲州街道国立,国立市谷保６２０８,自排局,東京都,13
35.722222,139.541667,13216010,西東京市南町,西東京市南町５－６－１３,一般局,東京都,13
35.722222,139.555556,13217510,青梅街道柳沢,西東京市柳沢２－１８先,自排局,東京都,13
35.736111,139.330556,13218010,福生市本町,福生市本町５,一般局,東京都,13
35.630556,139.575000,13219010,狛江市中和泉,狛江市中和泉３－４－１０,一般局,東京都,13
35.747222,139.427778,13220010,東大和市奈良橋,東大和市奈良橋４－５７３,一般局,東京都,13
35.777778,139.525000,13221010,清瀬市上清戸,清瀬市上清戸２－６－４１,一般局,東京都,13
35.750000,139.519444,13222510,小金井街道東久留米,東久留米市中央町６－９－１,自排局,東京都,13
35.630556,139.436111,13224010,多摩市愛宕,多摩市愛宕１－６５－１,一般局,東京都,13
35.772222,139.338889,13303520,東京環状長岡,西多摩郡瑞穂町長岡１－１０,自排局,東京都,13
35.500278,139.684722,14101010,鶴見区潮田交流プラザ,横浜市鶴見区本町通４－１７１－２３,一般局,横浜市,14
35.495556,139.671389,14101020,鶴見区生麦小学校,横浜市鶴見区生麦４－１５－１,一般局,横浜市,14
35.522778,139.674722,14101520,鶴見区下末吉小学校,横浜市鶴見区下末吉２－２５－６,自排局,横浜市,14
35.477222,139.629167,14102010,神奈川区総合庁舎,横浜市神奈川区広台太田町３－８,一般局,横浜市,14
35.457778,139.615278,14103010,西区平沼小学校,横浜市西区平沼２－１１－３６,一般局,横浜市,14
35.465556,139.611667,14103510,西区浅間下交差点,横浜市西区浅間町１－１６,自排局,横浜市,14
35.420000,139.648056,14104020,中区加曽台,横浜市中区根岸加曽台１－１,一般局,横浜市,14
35.414444,139.661667,14104030,中区本牧,横浜市中区本牧大里町１５５－１８,一般局,横浜市,14
35.432778,139.608889,14105020,南区横浜商業高校,横浜市南区南太田２－３０－１,一般局,横浜市,14
35.451111,139.585833,14106010,保土ヶ谷区桜丘高校,横浜市保土ヶ谷区桜ヶ丘２－１５－１,一般局,横浜市,14
35.402222,139.618056,14107010,磯子区総合庁舎,横浜市磯子区磯子３－５－１,一般局,横浜市,14
35.420556,139.625000,14107520,磯子区滝頭,横浜市磯子区滝頭３－１－６８,自排局,横浜市,14
35.362222,139.633333,14108020,金沢区長浜,横浜市金沢区富岡東６－１６－１,一般局,横浜市,14
35.519167,139.633333,14109040,港北区総合庁舎,横浜市港北区大豆戸町２６－１,一般局,横浜市,14
35.397778,139.514444,14110050,戸塚区汲沢小学校,横浜市戸塚区汲沢３－６－１,一般局,横浜市,14
35.398611,139.527778,14110510,戸塚区矢沢交差点,横浜市戸塚区戸塚町４２７２,自排局,横浜市,14
35.389167,139.571389,14111020,港南区野庭中央公園,横浜市港南区野庭町613,一般局,横浜市,14
35.401111,139.590556,14111520,港南中学校,横浜市港南区港南中央通６－１,自排局,横浜市,14
35.472222,139.551389,14112020,旭区鶴ヶ峯小学校,横浜市旭区鶴ヶ峰町１－４２,一般局,横浜市,14
35.485556,139.521944,14112510,旭区都岡小学校,横浜市旭区都岡町４－８,自排局,横浜市,14
35.516111,139.526944,14113020,緑区三保小学校,横浜市緑区三保町１８６７,一般局,横浜市,14
35.540000,139.514722,14113510,青葉台,横浜市青葉区しらとり台５,自排局,横浜市,14
35.536111,139.568056,14113520,資源循環都筑工場前,横浜市都筑区平台２７－１,自排局,横浜市,14
35.457500,139.486111,14114020,瀬谷区南瀬谷小学校,横浜市瀬谷区南瀬谷１－１－１,一般局,横浜市,14
35.358611,139.572500,14115010,栄区上郷小学校,横浜市栄区犬山町６－１,一般局,横浜市,14
35.417500,139.488611,14116010,泉区総合庁舎,横浜市泉区和泉町４６３６－２,一般局,横浜市,14
35.552500,139.537222,14117010,青葉区総合庁舎,横浜市青葉区市ヶ尾町３１－４,一般局,横浜市,14
35.544722,139.570278,14118010,都筑区総合庁舎,横浜市都筑区茅ヶ崎中央３２－１,一般局,横浜市,14
35.532778,139.734167,14131020,川崎区役所大師支所,川崎市川崎区東門前２－１－１,一般局,川崎市,14
35.515000,139.712222,14131030,国設川崎,川崎市川崎区田島町２０－５,一般局,環境省,14
35.518056,139.732778,14131530,池上新田公園前,川崎市川崎区池上町３,自排局,川崎市,14
35.540556,139.694722,14132510,遠藤町交差点,川崎市幸区遠藤町１,自排局,川崎市,14
35.572778,139.659167,14133010,中原区地域支援みまもりセンター,川崎市中原区小杉町３－２４５,一般局,川崎市,14
35.563611,139.660833,14133520,中原平和公園,川崎市中原区木月住吉町３３－１,自排局,川崎市,14
35.595556,139.617222,14134010,生活文化会館,川崎市高津区溝口１－６－１０,一般局,川崎市,14
35.605000,139.617500,14134530,二子,川崎市高津区溝口５－１５－７,自排局,川崎市,14
35.598889,139.518889,14135070,弘法松公園,川崎市麻生区百合丘２－１０,一般局,川崎市,14
35.618611,139.562500,14135080,登戸小学校,川崎市多摩区登戸１３２９,一般局,川崎市,14
35.588056,139.500556,14135530,柿生,川崎市麻生区片平２－３０－７,自排局,川崎市,14
35.609444,139.573333,14135540,本村橋,川崎市多摩区宿河原２－５９－２,自排局,川崎市,14
35.314444,139.634722,14201020,追浜行政センター,横須賀市夏島町９,一般局,横須賀市,14
35.219444,139.631667,14201040,西行政センター,横須賀市長坂１－２－２,一般局,横須賀市,14
35.225000,139.708333,14201050,久里浜行政センター,横須賀市久里浜６－１４－２,一般局,横須賀市,14
35.329722,139.359167,14203510,松原歩道橋,平塚市天沼２－５,自排局,平塚市,14
35.316111,139.550000,14204010,鎌倉市役所,鎌倉市御成町１８－１０,一般局,神奈川県,14
35.349722,139.520556,14204530,鎌倉市岡本,鎌倉市岡本１０１８,自排局,神奈川県,14
35.335556,139.495000,14205010,藤沢市役所,藤沢市朝日町１－１,一般局,藤沢市,14
35.400833,139.468056,14205030,湘南台小学校,藤沢市湘南台5-23,一般局,藤沢市,14
35.408611,139.432222,14205040,御所見小学校,藤沢市打戻１９０２,一般局,藤沢市,14
35.342500,139.490000,14205510,藤沢橋,藤沢市藤沢１－１,自排局,藤沢市,14
35.261111,139.155556,14206010,小田原市役所,小田原市荻窪３００,一般局,神奈川県,14
35.330833,139.408056,14207010,茅ケ崎市役所,茅ヶ崎市茅ケ崎１－１－１,一般局,神奈川県,14
35.333056,139.405000,14207510,茅ケ崎駅前交差点,茅ヶ崎市茅ヶ崎１－２３４０－１,自排局,神奈川県,14
35.292222,139.583333,14208020,逗子市役所,逗子市逗子５－２－１６,一般局,神奈川県,14
35.289444,139.582778,14208520,逗子市逗子,逗子市逗子５－１０－１９,自排局,神奈川県,14
35.571944,139.373056,14209010,相模原市役所,相模原市中央区中央2丁目11番15号,一般局,相模原市,14
35.522222,139.407222,14209020,相模台,相模原市南区桜台20番地1,一般局,相模原市,14
35.598333,139.343333,14209030,橋本,相模原市緑区橋本6丁目15番27号,一般局,相模原市,14
35.548611,139.356389,14209530,上溝,相模原市中央区上溝2322番地2,自排局,相模原市,14
35.141389,139.623611,14210010,三浦市城山,三浦市城山町５－１,一般局,神奈川県,14
35.374167,139.221389,14211010,秦野市役所,秦野市文京町２５８１－１５,一般局,神奈川県,14
35.369722,139.231667,14211510,秦野市本町,秦野市本町１－１０－１４,自排局,神奈川県,14
35.443333,139.368056,14212020,厚木市中町,厚木市中町１－８－１１,一般局,神奈川県,14
35.463056,139.371111,14212520,厚木市金田,厚木市金田１７２,自排局,神奈川県,14
35.484167,139.462500,14213010,大和市役所,大和市下鶴間１－１－１,一般局,神奈川県,14
35.468333,139.469167,14213510,大和市深見台交差点,大和市深見台４－１,自排局,神奈川県,14
35.400000,139.318611,14214020,伊勢原市役所,伊勢原市田中３４８,一般局,神奈川県,14
35.386944,139.281944,14214510,伊勢原市谷戸岡,伊勢原市大住台１－１－１,自排局,神奈川県,14
35.443611,139.393611,14215010,海老名市役所,海老名市勝瀬１７５,一般局,神奈川県,14
35.485278,139.410556,14216020,座間市役所,座間市緑ヶ丘１－１－１,一般局,神奈川県,14
35.307500,139.118889,14217020,南足柄市生駒,南足柄市生駒３３０－１,一般局,神奈川県,14
35.433889,139.428889,14218010,綾瀬市役所,綾瀬市早川５５０,一般局,神奈川県,14
35.525556,139.325833,14401010,愛川町角田,愛甲郡愛川町角田１０４－４,一般局,神奈川県,14
37.933056,139.082778,15201060,大山,新潟市東区大山２丁目１１番２号,一般局,新潟市,15
37.978333,139.223889,15201150,太郎代,新潟市北区太郎代４７２番地,一般局,新潟市,15
37.917222,139.081944,15201220,山木戸,新潟市東区山木戸１丁目１番２０号,一般局,新潟市,15
37.953056,139.146111,15201270,松浜,新潟市北区松浜５丁目１２番２号,一般局,新潟市,15
37.912778,139.038889,15201322,市役所,新潟市中央区学校町通１番町６０２番地１,自排局,新潟市,15
37.877222,138.988611,15201410,坂井輪,新潟市西区坂井東１丁目２番１号,一般局,新潟市,15
37.913333,139.073889,15201560,長嶺,新潟市中央区中央区長嶺町１１０番１,自排局,新潟市,15
37.435833,138.844722,15202080,長岡工業高校,長岡市幸町２－７－７０,一般局,新潟県,15
37.473889,138.860833,15202510,城岡自排,長岡市城岡２－９３８－３,自排局,新潟県,15
37.952778,139.332500,15206050,新発田,新発田市中央町５－８２１,一般局,新潟県,15
37.787500,139.124167,15207020,新津,新潟市秋葉区新栄町４番１号,一般局,新潟市,15
37.038611,137.857778,15216010,糸魚川,糸魚川市横町３丁目２５７－７,一般局,新潟県,15
37.035556,138.258611,15217050,大崎,妙高市大崎町３５４,一般局,新潟県,15
37.164444,138.276667,15222190,深谷,上越市大字三橋８４０,一般局,新潟県,15
37.964444,139.250278,15307080,杉谷内,北蒲原郡聖籠町大字藤寄字権現堂２８００－８,一般局,新潟県,15
37.177500,138.271111,15543010,西福島,上越市大字黒井字馬ノ口３９－３地先,一般局,新潟県,15
36.694722,137.203333,16201021,富山芝園,富山市安野屋町１－１－４２,一般局,富山市,16
36.746667,137.307778,16201110,富山水橋,富山市水橋畠等２９８－１１,一般局,富山市,16
36.651944,137.224444,16201140,富山蜷川,富山市赤田５０－１,一般局,富山市,16
36.738889,137.235000,16201400,富山岩瀬,富山市蓮町４－３－１０,一般局,富山市,16
36.689167,137.215278,16201510,富山城址,富山市本丸１,自排局,富山市,16
36.720833,137.239444,16201520,富山豊田,富山市豊田町２－９３－１,自排局,富山市,16
36.792222,137.057778,16202060,高岡伏木,高岡市伏木東一宮１－６,一般局,富山県,16
36.760833,137.151389,16203030,新湊海老江,射水市東明中町５－３,一般局,富山県,16
36.825833,137.410278,16204090,魚津,魚津市北鬼江１－１０７－１,一般局,富山県,16
36.836111,136.994167,16205180,氷見,氷見市窪１２４１,一般局,富山県,16
36.747778,137.353333,16206240,滑川上島,滑川市上島４７１,一般局,富山県,16
36.879167,137.449167,16207011,黒部植木,黒部市植木１１８,一般局,富山県,16
36.625833,136.991944,16208120,砺波,砺波市太田１４３９,一般局,富山県,16
36.669167,136.877222,16209100,小矢部,小矢部市泉町６２４,一般局,富山県,16
36.932778,137.508611,16342060,入善,下新川郡入善町入膳３９４５,一般局,富山県,16
36.657222,137.155000,16362010,婦中速星,富山市笹倉１２９,一般局,富山県,16
36.697500,137.102778,16381010,小杉太閤山,射水市中太閣山１７－１,一般局,富山県,16
36.588056,136.915000,16408060,福野,南砺市柴田屋１５３,一般局,富山県,16
36.053889,136.225278,18201040,福井,福井市豊島２丁目５番２６号,一般局,福井市,18
35.650556,136.065000,18202020,敦賀,敦賀市松栄町７番２８,一般局,福井県,18
35.625278,136.055833,18202190,和久野,敦賀市新和町２丁目３３番１号,一般局,福井県,18
35.905556,136.160556,18203010,武生,越前市平出１丁目６番１号,一般局,福井県,18
35.493611,135.753056,18204010,小浜,小浜市千種１－６－１３,一般局,福井県,18
35.988333,136.491111,18205010,大野,大野市水落町７－２１,一般局,福井県,18
35.965833,136.187500,18207010,神明,鯖江市水落町４丁目１３番２３号,一般局,福井県,18
35.975833,136.196111,18207050,御幸,鯖江市御幸町３丁目,一般局,福井県,18
35.933611,136.201944,18207080,鯖江東,鯖江市定次町４２番地,一般局,福井県,18
36.187778,136.145833,18361010,三国,坂井市山岸３１字１番地,一般局,福井県,18
36.209167,136.231389,18363010,金津,あわら市市姫２丁目２－１０,一般局,福井県,18
36.193611,136.270833,18363020,中川,あわら市中川１８号１０番,一般局,福井県,18
36.161944,136.228611,18366010,坂井,坂井市上新庄２８番２１,一般局,福井県,18
35.916111,136.250556,18381010,今立,越前市定友２１－５－１,一般局,福井県,18
35.545000,135.911667,18441010,三方,三方上中郡若狭町中央１－２,一般局,福井県,18
35.662222,138.568611,19201011,甲府市役所自排,甲府市丸の内１－１８－１,自排局,甲府市,19
35.480556,138.800833,19202030,吉田,富士吉田市上吉田１丁目２－５,一般局,山梨県,19
35.541944,138.896111,19204010,都留,都留市田原二丁目１２０４,一般局,山梨県,19
35.703889,138.713889,19205020,東山梨,甲州市塩山上塩後１２３９－１,一般局,山梨県,19
35.608611,138.935278,19206010,大月,大月市大月町花咲１６０８－３,一般局,山梨県,19
35.700278,138.456944,19207030,韮崎,韮崎市本町４丁目２－４,一般局,山梨県,19
35.639167,138.671667,19321030,笛吹,笛吹市石和町上平井1047-1,一般局,山梨県,19
35.284722,138.455833,19366010,南部,南巨摩郡南部町南部9103-3,一般局,山梨県,19
35.601667,138.498611,19390030,南アルプス,南アルプス市鏡中條１６４２－２,一般局,山梨県,19
35.632778,139.110000,19441030,上野原,上野原市上野原３８３２,一般局,山梨県,19
35.422222,136.758889,21201010,岐阜中央,岐阜市八ツ寺町1-7,一般局,岐阜市,21
35.381944,136.753056,21201020,岐阜南部,岐阜市茜部菱野２－１１５～１１８,一般局,岐阜市,21
35.453611,136.775556,21201030,岐阜北部,岐阜市福光東３－１９,一般局,岐阜市,21
35.420556,136.761111,21201520,明徳自動車排ガス,岐阜市明徳町１１,自排局,岐阜市,21
35.355000,136.614444,21202020,大垣中央,大垣市西外側町２－４９,一般局,岐阜県,21
35.337500,136.625556,21202050,大垣南部,大垣市築捨町１－１５９－２,一般局,岐阜県,21
36.142778,137.255556,21203010,高山,高山市花岡町２－１８,一般局,岐阜県,21
35.485278,137.503333,21206010,中津川,中津川市かやの木町２－１,一般局,岐阜県,21
35.361944,137.255833,21208010,瑞浪,瑞浪市上平町１－２９,一般局,岐阜県,21
35.316667,136.706111,21209020,羽島,羽島市竹鼻町８６,一般局,岐阜県,21
35.354444,137.178611,21212510,土岐自動車排出ガス測定局,土岐市泉池ノ上町２－３,自排局,岐阜県,21
35.407778,136.882778,21213020,各務原,各務原市蘇原中央町２－１－２,一般局,岐阜県,21
35.305833,137.170278,21541010,笠原,多治見市１１９４番地の１,一般局,岐阜県,21
34.996944,138.407778,22201030,千代田小学校,静岡市葵区沓谷５丁目４７－１,一般局,静岡市,22
34.936667,138.368889,22201060,長田南中学校,静岡市駿河区みずほ３丁目９－１,一般局,静岡市,22
34.985278,138.335833,22201090,服織小学校,静岡市葵区羽鳥6-9-1,一般局,静岡市,22
34.970000,138.379722,22201500,常磐公園,静岡市葵区常磐町３丁目１－１,一般局,静岡市,22
34.701667,137.715833,22202040,浜松中央測定局,浜松市中区鴨江２－１７－１,一般局,浜松市,22
34.723611,137.672778,22202080,西部測定局,浜松市西区神ヶ谷町３４９０,一般局,浜松市,22
34.752778,137.775278,22202120,東北部測定局,浜松市東区大瀬町2218,一般局,浜松市,22
34.691389,137.769444,22202150,東南部測定局,浜松市南区芳川町８０,一般局,浜松市,22
34.758611,137.720556,22202160,北部測定局,浜松市中区高丘東３－５１－１,一般局,浜松市,22
34.701944,137.731389,22202520,Ｒ－２５７,浜松市中区伝馬町３１１－１４,自排局,浜松市,22
34.703333,137.751111,22202530,Ｒ－１５０,浜松市中区相生町２３－２,自排局,浜松市,22
35.107222,138.856667,22203010,東部総合庁舎,沼津市高島本町１－３,一般局,静岡県,22
35.015833,138.489722,22204010,清水区役所,静岡市清水区旭町６－８,一般局,静岡市,22
34.999444,138.529167,22204020,清水三保第一小学校,静岡市清水区三保１０６９－１,一般局,静岡市,22
35.051389,138.479722,22204090,清水庵原中学校,静岡市清水区庵原２４５,一般局,静岡市,22
35.058333,138.527778,22204100,清水興津北公園,静岡市清水区興津中町１２８８,一般局,静岡市,22
35.043889,138.472500,22204510,自排神明,静岡市清水区庵原町９７－２,自排局,静岡市,22
35.092500,139.071944,22205010,熱海総合庁舎,熱海市水口町１３－１５,一般局,静岡県,22
35.118611,138.918611,22206010,三島市役所,三島市北田町４－４７,一般局,静岡県,22
35.110000,138.915833,22206510,自排三島,三島市南田町２８８－１,自排局,静岡県,22
35.221667,138.624167,22207010,富士宮市役所,富士宮市弓沢町１５０,一般局,静岡県,22
34.966667,139.100833,22208020,伊東市役所,伊東市大原２丁目１番１号,一般局,静岡県,22
34.836111,138.176389,22209010,島田市役所,島田市中央町１－１,一般局,静岡県,22
35.154167,138.677500,22210010,救急医療センター, 富士市津田  216-4 ,一般局,静岡県,22
35.170833,138.715556,22210020,吉原第三中学校,富士市比奈２１２６,一般局,静岡県,22
35.184722,138.685556,22210030,富士広見小学校,富士市広見本町１－１,一般局,静岡県,22
35.138611,138.704167,22210040,元吉原中学校,富士市鈴川中町２８－１,一般局,静岡県,22
35.191389,138.649167,22210050,鷹岡小学校,富士市久沢２－３－１,一般局,静岡県,22
35.208889,138.690000,22210060,大淵中学校,富士市大渕２９２０,一般局,静岡県,22
35.159722,138.650556,22210070,富士中学校,富士市中島３２０－１,一般局,静岡県,22
35.146944,138.767222,22210160,東小学校,富士市西船津２２０,一般局,静岡県,22
35.152778,138.669167,22210510,自排塔の木,富士市蓼原２８－１１地先,自排局,静岡県,22
35.131667,138.655556,22210520,自排宮島,富士市宮島１４２５－３地先,自排局,静岡県,22
34.718889,137.850278,22211010,磐田市役所,磐田市国府台６－１,一般局,静岡県,22
34.864722,138.311944,22212010,焼津中学校,焼津市焼津２丁目１０－２８,一般局,静岡県,22
34.768889,137.998056,22213010,掛川市役所,掛川市長谷1-1-１,一般局,静岡県,22
34.778889,138.018056,22213510,自排掛川,掛川市下西郷１１２番地地先,自排局,静岡県,22
34.844722,138.273611,22214010,藤枝大気測定室,藤枝市高柳２－３６１－３,一般局,静岡県,22
34.877222,138.267222,22214510,自排藤枝,藤枝市郡９７０,自排局,静岡県,22
35.308611,138.934722,22215010,御殿場市役所,御殿場市萩原４８３,一般局,静岡県,22
34.751111,137.928611,22216010,袋井市役所,袋井市新屋一丁目１番地の１,一般局,静岡県,22
34.789722,137.794444,22218010,浜北測定局,浜松市浜北区横須賀８００,一般局,浜松市,22
34.679444,138.945278,22219010,下田市役所,下田市東本郷１丁目５－１８,一般局,静岡県,22
35.196944,138.913611,22220010,裾野市民文化センター,裾野市石脇字佐野堰５５７番１,一般局,静岡県,22
34.718889,137.530833,22221010,湖西市役所,湖西市吉美３２６８,一般局,静岡県,22
35.017500,138.948611,22327010,大仁北小学校,伊豆の国市田京山崎７４０－５,一般局,静岡県,22
35.148889,138.622500,22381010,富士川第一中学校,富士市岩渕８５５－３,一般局,静岡県,22
35.118889,138.585000,22382010,蒲原測定局,静岡市清水区清水区蒲原新田2-2319-1,一般局,静岡県,22
34.807778,138.292500,22402010,大井川東小学校,焼津市宗高428,一般局,静岡県,22
34.739722,138.225000,22423010,牧之原市役所,牧之原市静波４４７－１,一般局,静岡県,22
34.666111,138.055000,22447010,掛川市大東支所,掛川市三俣６２０,一般局,静岡県,22
34.831111,137.671389,22522010,引佐測定局,浜松市北区引佐町井伊谷616-5,一般局,浜松市,22
35.175000,136.975556,23101010,国設名古屋大気環境測定所,名古屋市千種区鹿子殿２１－１,一般局,愛知県,23
35.193611,136.910278,23103011,上下水道局北営業所,名古屋市北区田幡２－４－５,自排局,名古屋市,23
35.200000,136.887500,23104510,名塚中学校,名古屋市西区新福寺町２－１－２,自排局,名古屋市,23
35.166667,136.865833,23105050,名楽町,名古屋市中村区名楽町４－７－１８,一般局,名古屋市,23
35.141111,136.963333,23107020,滝川小学校,名古屋市昭和区滝川町１３１,一般局,名古屋市,23
35.134444,136.883333,23110040,八幡中学校,名古屋市中川区元中野町２－１１,一般局,名古屋市,23
35.136944,136.815278,23110050,富田支所,名古屋市中川区春田３－２１５,一般局,名古屋市,23
35.101667,136.845556,23111010,惟信高校,名古屋市港区惟信町２－２６２,一般局,名古屋市,23
35.099722,136.890278,23111021,港陽,名古屋市港区港陽１－１－６５,自排局,名古屋市,23
35.073056,136.916667,23112020,白水小学校,名古屋市南区松下町２－１,一般局,名古屋市,23
35.105556,136.926111,23112060,千竃,名古屋市南区汐田町１３０４,自排局,名古屋市,23
35.080556,136.926389,23112510,元塩公園,名古屋市南区元塩町２,自排局,名古屋市,23
35.200000,136.979167,23113010,守山保健センター,名古屋市守山区小幡１－３－１,一般局,名古屋市,23
35.066389,136.940000,23114010,大高北小学校,名古屋市緑区大高町字町屋川１,一般局,名古屋市,23
35.118889,136.977500,23116010,天白保健センター,名古屋市天白区島田２－２０１,一般局,名古屋市,23
34.943611,137.191111,23202510,大平,岡崎市大平町二の沢６７,自排局,岡崎市,23
35.311944,136.811389,23203010,一宮市松降通,一宮市松降通７－２７－５,一般局,一宮市,23
34.891389,136.940833,23205050,半田市東洋町,半田市東洋町１－３－６,一般局,愛知県,23
34.823333,137.379722,23207010,豊川市役所,豊川市金屋西町３－１１,一般局,愛知県,23
35.170278,136.743056,23208530,津島市埋田町,津島市埋田町２－１２３－１,一般局,愛知県,23
34.837778,136.977778,23209080,碧南市川口町,碧南市川口町１－１６９,一般局,愛知県,23
35.018889,137.122778,23211020,南部局(竹元町),豊田市竹元町南細畔３,一般局,豊田市,23
35.081667,137.143056,23211040,中部局(三軒町),豊田市三軒町６－２３－５,一般局,豊田市,23
34.966944,137.081389,23212030,安城農林高校,安城市池浦町茶筅木１,一般局,愛知県,23
34.876111,137.080000,23213010,愛厚ホーム西尾苑,西尾市八ツ面町蔵屋敷９９,一般局,愛知県,23
34.825278,137.224722,23214010,蒲郡市御幸町,蒲郡市御幸町３３５０－１,一般局,愛知県,23
35.360556,136.947778,23215010,犬山消防署,犬山市大字五郎丸字下前田１,一般局,愛知県,23
35.339444,136.870278,23217010,江南市古知野町,江南市古知野町花霞７４,一般局,愛知県,23
35.308611,136.749444,23218010,一宮市小信中島,一宮市小信中島字川南１２－３,一般局,一宮市,23
35.290000,136.921944,23219010,小牧高校,小牧市小牧１丁目３２１,一般局,愛知県,23
35.040556,136.915833,23222010,東海市名和町,東海市名和町南之山１０－１３,一般局,愛知県,23
35.009167,136.892500,23222020,東海市横須賀小学校,東海市高横須賀町大塚３６,一般局,愛知県,23
35.009444,136.967500,23223010,大府小学校,大府市桃山町５－４４,一般局,愛知県,23
34.945000,136.834444,23224030,知多市新舞子保育園,知多市大草字北ノ田８１,一般局,愛知県,23
34.998611,137.053611,23225040,知立市役所,知立市広見３－１,一般局,愛知県,23
35.209722,137.039444,23226010,尾張旭市東大道町,尾張旭市東大道町山の内２４１９－５,一般局,愛知県,23
34.921389,136.992500,23227010,高浜小学校,高浜市青木町６－１－１５,一般局,愛知県,23
35.278056,136.880833,23228010,岩倉市中本町,岩倉市中本町字出口白山１－４,一般局,愛知県,23
35.058333,137.010556,23229010,豊明中学校,豊明市西川町横井４－１５,一般局,愛知県,23
35.090000,137.057500,23302010,東郷町春木,愛知郡東郷町春木字申下１３３５－１,一般局,愛知県,23
35.149167,137.067778,23303020,日進市五色園,日進市五色園２－２７１６,一般局,愛知県,23
35.175278,137.053889,23304010,長久手中学校,長久手市岩作権代30-3,一般局,愛知県,23
35.245833,136.917500,23342010,豊山町豊場,西春日井郡豊山町大字豊場字城屋敷１１７,一般局,愛知県,23
35.343889,136.771111,23381010,一宮市木曽川町,一宮市木曽川町黒田字北宿二ノ切２４７－１,一般局,一宮市,23
35.152222,136.796944,23421010,あま市伊福小学校,あま市七宝町伊福河原２８,一般局,愛知県,23
35.108056,136.722500,23428010,弥富市役所,弥富市前ヶ須町南本田３７９－１と３７９－３,一般局,愛知県,23
34.929722,136.917500,23441010,阿久比中学校,知多郡阿久比町大字卯坂字半田ヶ峰１,一般局,愛知県,23
34.973333,136.968333,23442010,東浦町役場,知多郡東浦町大字緒川字政所２０,一般局,愛知県,23
34.783889,136.860833,23446020,美浜町奥田,知多郡美浜町大字奥田字儀路６７－１,一般局,愛知県,23
34.848889,136.917222,23447010,武豊町役場,知多郡武豊町字長尾山１９,一般局,愛知県,23
34.809167,137.033056,23481010,西尾市役所一色支所,西尾市一色町前野新田３４番地,一般局,愛知県,23
34.875278,137.176389,23501010,幸田小学校,額田郡幸田町大字大草字三ツ石１８,一般局,愛知県,23
34.805833,137.322778,23604010,豊川市御津南部小学校,豊川市御津町御馬加美15,一般局,愛知県,23
34.623056,137.109167,23623020,田原市古田町,田原市古田町岡ノ越6-4,一般局,愛知県,23
34.923056,136.645833,24202010,磯津,四日市市磯津町旧海岸堤塘敷,一般局,四日市市,24
34.942778,136.625000,24202030,三浜,四日市市海山道町１－１５３２－１,一般局,四日市市,24
35.003889,136.645000,24202050,北星高校,四日市市大字茂福字横座６６８－１,一般局,四日市市,24
34.977222,136.596111,24202060,四日市商業高校,四日市市尾平町字永代寺,一般局,四日市市,24
34.932778,136.598889,24202360,南,四日市市小古曽町字西谷,一般局,四日市市,24
34.501944,136.707500,24203010,伊勢厚生中学校,伊勢市一之木5-5-3,一般局,三重県,24
34.561667,136.538611,24204010,松阪第五小学校,松阪市久保町２７６,一般局,三重県,24
35.062222,136.673889,24205010,桑名上野,桑名市桑名市大字上野字笠松,一般局,三重県,24
35.054722,136.672222,24205510,国道258号桑名,桑名市繁松新田字宮之割42番地の1,自排局,三重県,24
34.877778,136.552778,24207020,鈴鹿算所保育所,鈴鹿市算所５丁目１７－１,一般局,三重県,24
34.838056,136.589167,24207510,国道23号鈴鹿,鈴鹿市白子駅前6-33,自排局,三重県,24
34.621944,136.091667,24208010,名張小学校,名張市丸の内５５,一般局,三重県,24
34.080000,136.191389,24209210,尾鷲旧県職員公舎,尾鷲市宮ノ上町７－３４,一般局,三重県,24
34.843611,136.453889,24210010,亀山みなみ保育所,亀山市天神３－２－２３,一般局,三重県,24
34.856111,136.416389,24210510,国道25号亀山,亀山市太岡寺町1310,自排局,三重県,24
34.466111,136.847778,24211010,鳥羽高校,鳥羽市鳥羽市安楽島町1459,一般局,三重県,24
33.891667,136.092778,24212010,熊野木本中学校,熊野市井戸町４８７７－１,一般局,三重県,24
34.678056,136.488056,24213010,津立成小学校,津市久居野村町５６０,一般局,三重県,24
35.107222,136.536944,24323010,大安中学校,いなべ市石槫東2977,一般局,三重県,24
34.909444,136.627222,24342010,楠,四日市市北五味塚２０６０,一般局,四日市市,24
35.123333,136.098333,25204050,八幡,近江八幡市中村町２５,一般局,滋賀県,25
35.103056,136.208889,25205030,東近江,東近江市春日町１－１５,一般局,滋賀県,25
35.010000,135.953333,25206030,草津,草津市草津町１８３９,一般局,滋賀県,25
35.060000,135.988889,25207010,守山,守山市守山五丁目１３０－５,一般局,滋賀県,25
35.037222,135.740833,26101010,北,京都市北区紫野花ノ坊町２３,一般局,京都市,26
35.030556,135.762222,26102510,自排上京,京都市上京区烏丸通り上立売上ル相国寺門前町６４７の２,自排局,京都市,26
35.035278,135.783056,26103010,左京,京都市左京区松ヶ崎堂ノ上町７番地の２,一般局,京都市,26
35.008611,135.770278,26104010,京都市役所,京都市中京区寺町通り御池上ル上本能寺前町４８８,一般局,京都市,26
34.997778,135.735278,26104060,壬生,京都市中京区壬生東高田町１－２１,一般局,京都市,26
35.000556,135.751389,26104510,自排大宮,京都市中京区錦大宮町１１７,自排局,京都市,26
35.019167,135.734444,26104520,自排西ノ京,京都市中京区西ノ京中保町１の４,自排局,京都市,26
34.973611,135.749167,26107510,自排南,京都市南区西九条南田町１の３,自排局,京都市,26
34.932222,135.757500,26109010,伏見,京都市伏見区村上町３９５,一般局,京都市,26
34.935000,135.735000,26109020,久我,京都市伏見区久我東町６０の２,一般局,京都市,26
34.942222,135.810000,26109030,醍醐,京都市伏見区醍醐鍵尾町１７,一般局,京都市,26
34.985278,135.815000,26110010,山科,京都市山科区御陵四丁野町１,一般局,京都市,26
34.969167,135.816389,26110510,自排山科,京都市山科区椥辻池尻町１４の２,自排局,京都市,26
34.968889,135.700556,26111010,西京,京都市西京区樫原三宅町２４,一般局,京都市,26
35.291944,135.128333,26201040,福知山,福知山市岡ノ町１７５－３,一般局,京都府,26
35.469444,135.402222,26202030,東舞鶴,舞鶴市溝尻１２００番地,一般局,京都府,26
35.298889,135.245000,26203010,綾部,綾部市宮代町土代３６,一般局,京都府,26
34.884444,135.800556,26204010,宇治,宇治市宇治若森７番地の６,一般局,京都府,26
35.530000,135.202500,26205020,宮津,宮津市吉原２５８６番地の２,一般局,京都府,26
35.009722,135.569167,26206010,亀岡,亀岡市余部町五反田２７－１,一般局,京都府,26
34.849444,135.793056,26207030,城陽,城陽市寺田宮ノ平１番地,一般局,京都府,26
34.943611,135.706944,26208020,向陽,向日市森本町天神森４番地の８,一般局,京都府,26
34.852778,135.718611,26210510,国道１号,八幡市戸津堂田地内,自排局,京都府,26
34.903889,135.694722,26303020,大山崎,乙訓郡大山崎町円明寺松田１５番地,一般局,京都府,26
34.888611,135.686389,26303510,国道１７１号,乙訓郡大山崎町小字茶屋地先,自排局,京都府,26
34.884167,135.739722,26322020,久御山,久世郡久御山町坊ノ池高河原５番地,一般局,京都府,26
34.820833,135.771944,26342020,田辺,京田辺市田辺明田１番地,一般局,京都府,26
34.736111,135.831111,26362020,木津,木津川市木津上戸１８番地,一般局,京都府,26
34.694167,135.504167,27101510,梅田新道,大阪市北区西天満２－７－９,自排局,大阪市,27
34.694167,135.473056,27103510,海老江西小学校,大阪市福島区海老江８－１－１０,自排局,大阪市,27
34.679444,135.455000,27104010,此花区役所,大阪市此花区春日出北１－８－４,一般局,大阪市,27
34.673056,135.473056,27106010,九条南小学校,大阪市西区九条南２-１３-１７,一般局,大阪市,27
34.637500,135.476944,27108010,平尾小学校,大阪市大正区平尾２－２１－２８,一般局,大阪市,27
34.699444,135.489167,27112010,大阪タワー,大阪市北区大淀南２－２,,大阪市,27
34.700833,135.439722,27113510,出来島小学校,大阪市西淀川区出来島２－２－２４,自排局,大阪市,27
34.676389,135.538056,27115010,国設大阪,大阪市中央区大手前４－１－６７,一般局,環境省,27
34.665556,135.545556,27115510,今里交差点,大阪市東成区大今里西３－３－１１,自排局,大阪市,27
34.653056,135.536944,27116010,桃谷中学校,大阪市生野区勝山北３－１３－４４,一般局,大阪市,27
34.723889,135.544167,27117010,大宮中学校,大阪市旭区中宮４－７－１１,一般局,大阪市,27
34.711944,135.564722,27117510,新森小路小学校,大阪市旭区新森６－３－１３,自排局,大阪市,27
34.694167,135.545556,27118020,聖賢小学校,大阪市城東区新喜多２－４－３５,一般局,大阪市,27
34.601389,135.515000,27120510,我孫子中学校,大阪市住吉区我孫子東１－４－３２,自排局,大阪市,27
34.633333,135.541389,27121510,杭全町交差点,大阪市東住吉区杭全２－１３－６先,自排局,大阪市,27
34.645278,135.501389,27122010,今宮中学校,大阪市西成区花園北１－８－３２,一般局,大阪市,27
34.728056,135.480833,27123010,野中小学校,大阪市淀川区野中北１－１１－２６,一般局,大阪市,27
34.705833,135.588611,27124010,茨田北小学校,大阪市鶴見区浜３－８－６６,一般局,大阪市,27
34.605833,135.482222,27125010,清江小学校,大阪市住之江区御崎５－７－１７,一般局,大阪市,27
34.627500,135.435556,27125030,南港中央公園,大阪市住之江区南港東８－５,一般局,大阪市,27
34.619444,135.493056,27125510,北粉浜小学校,大阪市住之江区粉浜１－５－４８,自排局,大阪市,27
34.605833,135.475833,27125520,住之江交差点,大阪市住之江区南加賀屋１－１－８０先,自排局,大阪市,27
34.616667,135.548056,27126010,摂陽中学校,大阪市平野区平野西３－４－７,一般局,大阪市,27
34.571111,135.471944,27201020,少林寺,堺市堺区少林寺町東４－１－１,一般局,堺市,27
34.540833,135.461111,27201030,浜寺,堺市西区浜寺船尾町西５－６０,一般局,堺市,27
34.560000,135.455833,27201050,石津,堺市西区浜寺石津町中２－３－２８,一般局,堺市,27
34.590556,135.475278,27201080,三宝,堺市堺区三宝町５－２８６,一般局,堺市,27
34.483333,135.515000,27201090,若松台,堺市南区若松台３－３４－１,一般局,堺市,27
34.523056,135.531667,27201100,登美丘,堺市東区大美野１３５,一般局,堺市,27
34.536111,135.503889,27201340,深井,堺市中区深井水池町３２１４,一般局,堺市,27
34.570833,135.486389,27201510,堺市役所,堺市堺区南瓦町３－１,自排局,堺市,27
34.555000,135.450556,27201560,湾岸,堺市西区石津西町２４－４,自排局,堺市,27
34.565556,135.518611,27201570,常磐浜寺,堺市北区新金岡町４－１－９,自排局,堺市,27
34.525000,135.510000,27201580,阪和深井畑山,堺市中区深井東町２６６１－３,自排局,堺市,27
34.465833,135.381944,27202060,岸和田中央公園,岸和田市西之内町２７９－２,一般局,大阪府,27
34.480278,135.383889,27202530,天の川下水ポンプ場,岸和田市春木大国町８－２０,自排局,大阪府,27
34.741389,135.473333,27203030,豊中市菰江公園,豊中市三和町三丁目三番,一般局,豊中市,27
34.777500,135.472500,27203510,豊中市役所,豊中市中桜塚３－１－１,自排局,豊中市,27
34.821667,135.450278,27204030,池田市立南畑会館,池田市畑１－７－４,一般局,大阪府,27
34.847778,135.612778,27207510,高槻市役所,高槻市桃園町２－１,自排局,高槻市,27
34.432500,135.368889,27208010,貝塚市消防署,貝塚市鳥羽１２２－１,一般局,大阪府,27
34.729722,135.556944,27209010,西部コミュニティーセンター,守口市文園町８－８,一般局,大阪府,27
34.736667,135.562778,27209510,大阪府立淀川工科高等学校,守口市京阪本通２－６２,自排局,大阪府,27
34.811111,135.653611,27210010,枚方市役所,枚方市大垣内町２－１－２０,一般局,枚方市,27
34.818056,135.705833,27210020,王仁公園,枚方市王仁公園１,一般局,枚方市,27
34.813333,135.571389,27211010,茨木市役所,茨木市駅前３－８－１３,一般局,大阪府,27
34.622222,135.605000,27212010,八尾市保健所,八尾市清水町１－２－５,一般局,八尾市,27
34.400556,135.301667,27213050,佐野中学校,泉佐野市羽倉崎４－３－１２,一般局,大阪府,27
34.395000,135.312222,27213510,末広公園,泉佐野市新安松１－１－２４,自排局,大阪府,27
34.496111,135.600000,27214020,富田林市役所,富田林市常盤町１－１,一般局,大阪府,27
34.762778,135.630833,27215010,寝屋川市役所,寝屋川市本町１－１,一般局,寝屋川市,27
34.435556,135.567778,27216010,三日市公民館,河内長野市三日市町２８８－１,一般局,大阪府,27
34.451944,135.566389,27216520,外環河内長野,河内長野市西之山町２－２１,自排局,大阪府,27
34.575556,135.553889,27217510,松原北小学校,松原市阿保１－１６－３,自排局,大阪府,27
34.708611,135.626389,27218010,大東市役所,大東市谷川１－１－１,一般局,大阪府,27
34.442222,135.460833,27219040,緑ケ丘小学校,和泉市緑ケ丘３－４－１,一般局,大阪府,27
34.568333,135.644722,27221010,府立修徳学院,柏原市大字高井田８０９－１,一般局,大阪府,27
34.773333,135.564167,27224510,摂津市役所,摂津市三島１－２－１,自排局,大阪府,27
34.522222,135.449444,27225010,高石中学校,高石市東羽衣６－６－４５,一般局,大阪府,27
34.515833,135.446667,27225510,カモドールＭＢＳ,高石市西取石６－１１－１,自排局,大阪府,27
34.571667,135.600278,27226030,藤井寺市役所,藤井寺市岡１－１－１,一般局,大阪府,27
34.655556,135.640000,27227020,東大阪市六万寺,東大阪市南四条町３－３３,一般局,東大阪市,27
34.661667,135.578333,27227040,東大阪市西保健センター,東大阪市高井田元町２－８－２７,一般局,東大阪市,27
34.371111,135.288056,27228010,泉南市役所,泉南市樽井１－１－１,一般局,大阪府,27
34.734444,135.634722,27229510,国設四條畷,四條畷市江瀬美町１２－１１,自排局,環境省,27
34.880556,135.665833,27301010,島本町役場,三島郡島本町桜井２－１－１,一般局,大阪府,27
34.336389,135.230833,27367010,南海団地,阪南市舞４－６－１４,一般局,大阪府,27
34.720833,135.265833,28101010,東灘,神戸市東灘区住吉東町５丁目,一般局,神戸市,28
34.684722,135.266667,28101030,六甲アイランド,神戸市東灘区向洋町中６丁目,一般局,神戸市,28
34.710000,135.231944,28102010,灘,神戸市灘区神ノ木通３丁目,一般局,神戸市,28
34.703611,135.205833,28103010,葺合,神戸市中央区熊内町１丁目,一般局,神戸市,28
34.654444,135.172222,28105010,兵庫南部,神戸市兵庫区御崎町１丁目,一般局,神戸市,28
34.662222,135.153889,28106010,長田,神戸市長田区北町３丁目,一般局,神戸市,28
34.642778,135.123333,28107010,須磨,神戸市須磨区行幸町３丁目,一般局,神戸市,28
34.688611,135.102500,28107020,白川台,神戸市須磨区白川台５丁目,一般局,神戸市,28
34.646944,135.132778,28107510,西部自動車,神戸市須磨区中島町１丁目,自排局,神戸市,28
34.633889,135.063889,28108010,垂水,神戸市垂水区大町２丁目,一般局,神戸市,28
34.706111,134.986389,28108020,西神,神戸市西区平野町繁田,一般局,神戸市,28
34.625278,135.063333,28108510,垂水自動車,神戸市垂水区平磯１丁目,自排局,神戸市,28
34.740000,135.068056,28111010,押部谷,神戸市西区桜が丘東町５丁目,一般局,神戸市,28
34.801944,134.631389,28201020,広畑,姫路市広畑区正門通１丁目７番地の３,一般局,姫路市,28
34.796944,134.680000,28201030,飾磨,姫路市飾磨区玉地１丁目２７番地,一般局,姫路市,28
34.781944,134.707500,28201040,白浜,姫路市白浜町甲３９６－８,一般局,姫路市,28
34.815833,134.743889,28201050,御国野,姫路市御国野町御着１１４２の２,一般局,姫路市,28
34.786111,134.591389,28201060,網干,姫路市網干区垣内中町１２０,一般局,姫路市,28
34.857500,134.646944,28201070,飾西,姫路市飾西７２８の５,一般局,姫路市,28
34.904444,134.580833,28201090,林田,姫路市林田町林田１５,一般局,姫路市,28
34.843333,134.700000,28201380,八代,姫路市八代７７９番地の１７,一般局,姫路市,28
34.831944,134.685556,28201520,船場自動車排出ガス,姫路市小姓町３５の３,自排局,姫路市,28
34.794444,134.672778,28201530,飾磨自動車排出ガス,姫路市飾磨区細江４４４,自排局,姫路市,28
34.744167,135.408056,28202010,市立立花北小学校,尼崎市栗山町２丁目６番１号,一般局,尼崎市,28
34.722778,135.417778,28202020,国設尼崎,尼崎市東難波町4丁目9-12,一般局,環境省,28
34.712778,135.422778,28202030,城内高校,尼崎市北城内４７の１,一般局,尼崎市,28
34.711944,135.391111,28202520,武庫川,尼崎市武庫川町1丁目25,自排局,尼崎市,28
34.761111,135.388333,28202530,武庫荘総合高校,尼崎市武庫荘８－３１－１,自排局,尼崎市,28
34.741944,135.414444,28202540,砂田こども広場,尼崎市南塚口町７の１７,自排局,尼崎市,28
34.745278,135.425278,28202550,上坂部西公園,尼崎市東塚口町２の２,自排局,尼崎市,28
34.723889,135.398333,28202560,浜田,尼崎市大庄北５丁目２の１地先,自排局,尼崎市,28
34.750556,135.448889,28202570,園和小学校,尼崎市東園田町４－７９,自排局,尼崎市,28
34.694722,134.890000,28203020,二見,明石市二見町東二見４５７の１,一般局,明石市,28
34.676111,134.941389,28203030,大久保,明石市大久保町大窪６１２の１,一般局,明石市,28
34.650000,134.983333,28203060,王子,明石市王子２丁目１２の６,一般局,明石市,28
34.645833,134.972778,28203510,林崎,明石市林崎町１丁目８の１０,自排局,明石市,28
34.664722,134.964444,28203530,小久保,明石市小久保１丁目５の５,自排局,明石市,28
34.733889,135.343889,28204010,西宮市役所,西宮市六湛寺町１０番３号,一般局,西宮市,28
34.715278,135.373056,28204020,鳴尾支所,西宮市鳴尾町３丁目５番１４号,一般局,西宮市,28
34.740278,135.370278,28204030,瓦木公民館,西宮市瓦林町８番１号,一般局,西宮市,28
34.765000,135.355000,28204130,甲陵中学校,西宮市上甲東園２丁目１１番２０号,一般局,西宮市,28
34.823611,135.239167,28204140,山口小学校,西宮市山口町下山口４丁目２３番１号,一般局,西宮市,28
34.710000,135.356667,28204150,浜甲子園,西宮市浜甲子園２丁目１６番２３号,一般局,西宮市,28
34.735000,135.344167,28204510,六湛寺,西宮市六湛寺町１０番３号,自排局,西宮市,28
34.728056,135.351389,28204520,津門川,西宮市津門川町６番２０号,自排局,西宮市,28
34.744722,135.348333,28204530,河原,西宮市河原町１番３１号,自排局,西宮市,28
34.717222,135.369722,28204560,甲子園,西宮市甲子園７番町１５番７号,自排局,西宮市,28
34.823056,135.309722,28204570,塩瀬,西宮市名塩新町１番地,自排局,西宮市,28
34.339722,134.897778,28205010,洲本市役所,洲本市本町３丁目４の１０,一般局,兵庫県,28
34.742222,135.306944,28206090,朝日ヶ丘小学校,芦屋市朝日ヶ丘町１０番１０号,一般局,兵庫県,28
34.727778,135.320000,28206510,打出,芦屋市打出町２番１３号,自排局,兵庫県,28
34.784167,135.400278,28207030,伊丹市役所,伊丹市千僧１丁目１番地,一般局,兵庫県,28
34.800000,134.471111,28208010,相生市役所,相生市旭１丁目１番３号,一般局,兵庫県,28
34.815833,134.488056,28208510,池ノ内,相生市池ノ内家の下５４６－７,自排局,兵庫県,28
35.541389,134.823611,28209010,豊岡市役所,豊岡市中央町２－４,一般局,兵庫県,28
35.535556,134.827222,28209510,小尾崎,豊岡市城南町３,自排局,兵庫県,28
34.754444,134.845000,28210010,加古川市役所,加古川市野口町良野１５６８番地,一般局,加古川市,28
34.739167,134.879167,28210520,平岡,加古川市平岡町新在家１８０１－１,自排局,加古川市,28
34.855278,134.560000,28211010,たつの市役所,たつの市龍野町富永１００５の１,一般局,兵庫県,28
34.751667,134.393056,28212010,赤穂市役所,赤穂市加里屋８１番地,一般局,兵庫県,28
34.990000,134.971944,28213010,西脇市役所,西脇市西脇市郷瀬町６０５,一般局,兵庫県,28
34.786111,135.361944,28214010,高司中学校,宝塚市宝塚市高司2-3-1,一般局,兵庫県,28
34.806111,135.347500,28214510,栄町,宝塚市栄町１丁目１６番２号,自排局,兵庫県,28
34.762500,134.793056,28216010,高砂市役所,高砂市荒井町千鳥１丁目１番１号,一般局,兵庫県,28
34.769722,134.800833,28216520,中島,高砂市中島２丁目３５９－１,自排局,兵庫県,28
34.827222,135.419167,28217010,川西市役所,川西市中央町１２番１号,一般局,兵庫県,28
34.808611,135.413611,28217520,加茂,川西市加茂５丁目６３－１,自排局,兵庫県,28
34.845000,134.938056,28218510,上本町,小野市上本町２５０番地,自排局,兵庫県,28
34.885833,135.228056,28219010,三田市役所,三田市三輪２丁目１－１,一般局,兵庫県,28
34.745556,134.905000,28381010,稲美町役場,加古郡稲美町国岡１－１,一般局,兵庫県,28
34.712500,134.870556,28382010,播磨町役場,加古郡播磨町東本荘１－５－３０,一般局,兵庫県,28
34.833333,134.578056,28464010,太子町役場,揖保郡太子町鵤280－１,一般局,兵庫県,28
35.126111,135.085278,28641010,柏原,丹波市柏原町柏原６８８,一般局,兵庫県,28
34.515833,135.737222,29202010,高田,大和高田市大中９８－４,一般局,奈良県,29
34.591389,135.831667,29204010,天理,天理市丹波市町１８０番地,一般局,奈良県,29
34.508056,135.797222,29205510,自排橿原,橿原市八木町１丁目１－１８,自排局,奈良県,29
34.518056,135.844722,29206010,桜井,桜井市粟殿１０００,一般局,奈良県,29
34.457222,135.739722,29208010,御所,御所市御所６０５－１０,一般局,奈良県,29
34.688611,135.709722,29209010,生駒,生駒市山崎町４－１０,一般局,奈良県,29
34.555278,135.791944,29363010,田原本,磯城郡田原本町宮古４０４－７,一般局,奈良県,29
34.591111,135.710278,29425010,王寺,北葛城郡王寺町王寺１丁目４２２７－３,一般局,奈良県,29
34.244444,135.140556,30201020,衛生研究所,和歌山市松江東３丁目２－６７,一般局,和歌山市,30
34.241667,135.149444,30201030,島橋地区会館,和歌山市島橋北ノ丁１－２２,一般局,和歌山市,30
34.239722,135.185833,30201040,中之島小学校,和歌山市中之島１４９１,一般局,和歌山市,30
34.210833,135.165556,30201050,環衛研,和歌山市砂山南３－３－４５,一般局,和歌山県,30
34.250556,135.132500,30201070,木の本社宅,和歌山市松江北５丁目１２９５番地４６,一般局,和歌山市,30
34.185556,135.180278,30201110,明和中学校,和歌山市紀三井寺８３２－１,一般局,和歌山市,30
34.239444,135.290000,30201130,小倉小学校,和歌山市新庄３４８,一般局,和歌山市,30
34.254444,135.109444,30201250,清明寮,和歌山市西庄１０９５,一般局,和歌山市,30
34.256389,135.201389,30201270,市立和歌山高校,和歌山市六十谷４５,一般局,和歌山市,30
34.210556,135.183611,30201280,南消防宮前出張所,和歌山市小雑賀２－２－８,一般局,和歌山市,30
34.223056,135.192500,30201520,新南小学校,和歌山市木広町４丁目２３,自排局,和歌山市,30
34.150000,135.214167,30202020,内海小学校,海南市鳥居１９０,一般局,和歌山県,30
34.156111,135.210278,30202140,日方小学校,海南市日方１２６９,一般局,和歌山県,30
34.156111,135.203056,30202160,黒江小学校,海南市船尾２３６－４,一般局,和歌山県,30
33.889167,135.157778,30205010,御坊監視支所,御坊市薗字円津２５５－４,一般局,和歌山県,30
33.731667,135.380000,30206010,会津公園,田辺市湊１６２９－６,一般局,和歌山県,30
34.107500,135.146944,30301020,下津港湾会館,海南市下津町下津３０６６－１６,一般局,和歌山県,30
34.126111,135.158611,30301030,加茂郷,海南市下津町黒田１１２番地,一般局,和歌山県,30
34.272500,135.402222,30322010,粉河中部運動場,紀の川市粉河１４７９,一般局,和歌山県,30
34.033056,135.186111,30361010,耐久高校,有田郡湯浅町湯浅１９８５,一般局,和歌山県,30
33.904722,135.198611,30384010,小熊広場,日高郡日高川町大字小熊,一般局,和歌山県,30
33.872500,135.238611,30390010,印南原,日高郡印南町印南原３１９９－１,一般局,和歌山県,30
35.472222,133.015000,32201060,国設松江大気環境測定所,松江市西浜佐陀町５８２－１,一般局,環境省,32
35.455833,133.068889,32201520,西津田自動車排出ガス測定局,松江市津田町３４３－４,自排局,島根県,32
34.894444,132.073889,32202040,浜田合同庁舎一般環境大気測定局,浜田市片庭町２５４,一般局,島根県,32
35.361111,132.752778,32203040,出雲保健所一般環境大気測定局,出雲市塩冶町２２３－１,一般局,島根県,32
34.675278,131.853889,32204040,益田合同庁舎一般環境大気測定局,益田市昭和町１３－１,一般局,島根県,32
35.192222,132.510278,32205010,大田一般環境大気測定局,大田市大田町大田若宮イ497-6,一般局,島根県,32
35.415278,133.244722,32206040,安来一般環境大気測定局,安来市安来町字八幡５８２－１,一般局,島根県,32
35.008333,132.225000,32207060,江津市役所一般環境大気測定局,江津市江津町１５２５,一般局,島根県,32
34.600278,133.975833,33201040,江並,岡山市中区江並４２８－７３,一般局,岡山市,33
34.602778,133.937500,33201060,南輝,岡山市南区南輝３－６－９,一般局,岡山市,33
34.653889,134.036111,33201120,西大寺,岡山市東区西大寺上１－２０－６０,一般局,岡山市,33
34.668056,133.926111,33201130,南方,岡山市北区南方１－３－６５,自排局,岡山市,33
34.681111,133.988333,33201160,東岡山,岡山市中区長岡５８－２,一般局,岡山市,33
34.657778,133.923889,33201180,出石,岡山市北区幸町１０－９,一般局,岡山市,33
34.585833,133.855000,33201190,興除,岡山市南区中畦５８９－４,一般局,岡山市,33
34.648889,133.865833,33201210,吉備,岡山市北区東花尻２４１－１,一般局,岡山市,33
34.542222,133.745833,33202020,春日,倉敷市水島北春日町１１－１１,一般局,倉敷市,33
34.508333,133.761944,33202060,松江,倉敷市松江３－１１－２６,一般局,倉敷市,33
34.505833,133.771944,33202070,呼松,倉敷市呼松３－１－２４,一般局,倉敷市,33
34.498056,133.780000,33202080,宇野津,倉敷市児島宇野津１７５５－１,一般局,倉敷市,33
34.473611,133.773333,33202090,塩生,倉敷市児島塩生１９５９－３,一般局,倉敷市,33
34.537778,133.716944,33202100,連島,倉敷市連島町鶴新田１７０５,一般局,倉敷市,33
34.596944,133.780556,33202110,倉敷美和,倉敷市美和１－１３－３３,一般局,倉敷市,33
34.590278,133.810000,33202120,豊洲,倉敷市西田２０１－１,一般局,倉敷市,33
34.556944,133.815000,33202130,天城,倉敷市藤戸町天城２２８５,一般局,倉敷市,33
34.580556,133.839722,33202140,茶屋町,倉敷市茶屋町早沖１１０３－１,一般局,倉敷市,33
34.532778,133.818611,33202150,郷内,倉敷市林８７０,一般局,倉敷市,33
34.580556,133.730556,33202160,西阿知,倉敷市西阿知町１０７０,一般局,倉敷市,33
34.544444,133.671111,33202170,玉島,倉敷市玉島阿賀崎３－３－１,一般局,倉敷市,33
34.466111,133.812222,33202180,児島,倉敷市児島小川１－１－１７,一般局,倉敷市,33
34.470000,133.847500,33202190,田の口,倉敷市児島田の口３－１３－１,一般局,倉敷市,33
34.597222,133.768611,33202520,駅前,倉敷市阿知１－６００－４,自排局,倉敷市,33
34.575833,133.758889,33202530,大高,倉敷市堀南６２１,自排局,倉敷市,33
35.068333,134.011389,33203020,津山,津山市山北７４０,一般局,岡山県,33
34.455833,133.925833,33204010,日比,玉野市明神町１－１,一般局,岡山県,33
34.456667,133.934444,33204020,向日比１丁目,玉野市向日比１－４－２５,一般局,岡山県,33
34.453889,133.909167,33204030,渋川,玉野市渋川１－４１０－１,一般局,岡山県,33
34.487500,133.949167,33204040,宇野,玉野市宇野１－３０５５－６,一般局,岡山県,33
34.452778,133.923333,33204050,日比２丁目,玉野市日比２－６－５,一般局,岡山県,33
34.452222,133.932778,33204060,向日比２丁目,玉野市向日比２－２８２３－５番地の一部,一般局,岡山県,33
34.531111,133.979444,33204070,後閑,玉野市後閑１４９２－３,一般局,岡山県,33
34.521667,133.901389,33204090,用吉,玉野市用吉１６５５－６,自排局,岡山県,33
34.455833,133.493333,33205010,寺間,笠岡市神島１５５３,一般局,岡山県,33
34.490556,133.463333,33205020,茂平,笠岡市茂平２８０,一般局,岡山県,33
34.495833,133.518611,33205510,大磯,笠岡市大磯２７２－１１,自排局,岡山県,33
34.599444,133.464722,33207510,井原,井原市井原町１１１３,一般局,岡山県,33
34.670556,133.746944,33208010,総社,総社市中央２－４－１０３,一般局,岡山県,33
34.970278,133.470833,33210010,新見,新見市金谷字出原６７１,一般局,岡山県,33
34.741667,134.197500,33211050,東片上,備前市東片上７０５－２,一般局,岡山県,33
34.800000,134.275278,33211060,三石,備前市三石宿上３９３－３,一般局,岡山県,33
34.736667,134.166389,33211520,伊部,備前市伊部１４１５－２,自排局,岡山県,33
34.743889,134.296667,33342010,日生,備前市備前市日生町寒河3961-1,一般局,岡山県,33
34.595000,133.827778,33423010,早島,都窪郡早島町前潟２４０,一般局,岡山県,33
34.601111,133.821111,33423510,長津,都窪郡早島町大字早島３１０１－７,自排局,岡山県,33
34.582222,133.710000,33441010,船穂,倉敷市船穂町船穂2897,一般局,岡山県,33
34.540000,133.627500,33442010,金光,浅口市金光町占見新田751,一般局,岡山県,33
34.475833,133.585556,33444010,寄島,浅口市寄島町7555-2,一般局,岡山県,33
34.624722,133.691944,33503010,真備,倉敷市真備町箭田1769-1,一般局,岡山県,33
34.254722,132.576111,34202010,明立小学校,呉市伏原２丁目６－３８,一般局,呉市,34
34.232778,132.561111,34202020,宮原小学校,呉市宮原４丁目８－１,一般局,呉市,34
34.231111,132.628333,34202040,白岳小学校,呉市広駅前１丁目６－１,一般局,呉市,34
34.219167,132.548056,34202050,鍋山団地,呉市警固屋１丁目１７２－１６,一般局,呉市,34
34.236389,132.583889,34202510,西畑町,呉市西畑町３３地先,自排局,呉市,34
34.339167,132.905000,34203010,竹原高校,竹原市竹原町３４４４－１,一般局,広島県,34
34.392500,133.075833,34204520,三原宮沖町,三原市宮沖町１１９－２,自排局,広島県,34
34.412222,133.210000,34205010,尾道東高校,尾道市東久保町１２－１,一般局,広島県,34
34.480000,133.370833,34207020,南小学校,福山市明治町４番１号,一般局,福山市,34
34.508333,133.414167,34207040,培遠中学校,福山市春日町３丁目１５番１８号,一般局,福山市,34
34.440278,133.381389,34207060,向丘中学校,福山市水呑向丘１０７番地,一般局,福山市,34
34.468889,133.395000,34207090,曙小学校,福山市曙町５丁目１６番３号,一般局,福山市,34
34.554722,133.330833,34207310,駅家北小学校,福山市駅家町法成寺６７番地,一般局,福山市,34
34.481667,133.365000,34207510,福山市役所,福山市東桜町３番５号,自排局,福山市,34
34.566944,133.245833,34208050,府中市教育センター,府中市元町１－５,一般局,広島県,34
34.794167,132.856111,34209020,三次市十日市町,三次市十日市町１６８－１,一般局,広島県,34
34.215833,132.222222,34211200,大竹油見公園,大竹市油見３丁目１１４３,一般局,広島県,34
34.417500,132.743056,34212030,東広島西条小学校,東広島市西条中央２丁目１５－１,一般局,広島県,34
34.363333,132.531667,34304010,海田高校,安芸郡海田町つくも町１－６０,一般局,広島県,34
34.354167,132.345000,34322030,廿日市桂公園,廿日市市桜尾本町,一般局,広島県,34
34.435556,132.863611,34408010,河内入野,東広島市河内町入野５０４８－１,一般局,広島県,34
34.239167,132.891667,34427010,大崎小学校,豊田郡大崎上島町中野２０７８,一般局,広島県,34
34.543889,133.375278,34501010,神辺支所,福山市神辺町大字川北１３５６－１,一般局,福山市,34
34.064167,131.031667,35201010,小月局,下関市小月茶屋町２丁目３－５,一般局,下関市,35
34.000556,130.991111,35201020,長府局,下関市長府亀の甲２丁目２－１,一般局,下関市,35
33.939444,130.898333,35201030,彦島局,下関市彦島迫町５丁目１３－２１,一般局,下関市,35
33.985556,130.929722,35201040,山の田局,下関市山の田本町８－１,一般局,下関市,35
33.955556,131.249722,35202020,宇部総合庁舎,宇部市琴芝１丁目1-50,一般局,山口県,35
33.932778,131.261667,35202030,岬児童公園,宇部市松山町５丁目9番地,一般局,山口県,35
33.990556,131.220278,35202360,厚南市民センター,宇部市厚南中央3丁目1－2,一般局,山口県,35
34.150000,131.436111,35203010,環境保健センター,山口市大字朝田字蛭田５３５,一般局,山口県,35
34.055833,131.810278,35205010,周南総合庁舎,周南市毛利町二丁目３８,一般局,山口県,35
34.021667,131.832778,35205030,櫛浜小学校,周南市大字栗屋680,一般局,山口県,35
34.041667,131.830278,35205040,徳山商工高校,周南市周陽３丁目1-1,一般局,山口県,35
34.055556,131.817778,35205520,三田川交差点,周南市大字徳山５８１１－７,自排局,山口県,35
34.048889,131.565278,35206010,防府市役所,防府市寿町７番１号,一般局,山口県,35
34.015278,131.552500,35206050,中関小学校,防府市大字浜方７４６－１,一般局,山口県,35
33.995556,131.880556,35207030,豊井小学校,下松市大字東豊井１１３４,一般局,山口県,35
34.012222,131.873056,35207090,下松市役所,下松市大手町３丁目３－３,一般局,山口県,35
34.169722,132.216111,35208010,麻里布小学校,岩国市山手町1丁目7-60,一般局,山口県,35
34.141111,132.215833,35208030,愛宕小学校,岩国市尾津町１丁目１番１１号,一般局,山口県,35
33.971944,131.183611,35209010,須恵健康公園,山陽小野田市須恵１丁目２番,一般局,山口県,35
33.955000,131.185000,35209020,竜王中学校,山陽小野田市大字小野田３９２３,一般局,山口県,35
33.971389,131.932222,35210020,浅江中学校,光市花園町２丁目１番１号,一般局,山口県,35
33.958889,131.953056,35210040,光高校,光市大字光井６丁目１０－１,一般局,山口県,35
33.961389,132.104167,35212010,柳井市役所,柳井市南町１丁目１０番２号,一般局,山口県,35
34.164167,131.203333,35213010,美祢さくら公園,美祢市伊佐１２０３４番地１,一般局,山口県,35
34.176667,131.212222,35213020,美祢青嶺高校,美祢市大嶺町向原２９９－１,一般局,山口県,35
34.068056,131.788333,35214010,浦山送水場,周南市川崎３丁目３番６号,一般局,山口県,35
34.072778,131.765278,35214020,宮の前児童公園,周南市宮の前２丁目,一般局,山口県,35
34.203333,132.221111,35321010,和木コミュニティセンター,玖珂郡和木町大字和木２丁目１５番１号,一般局,山口県,35
34.105278,134.577778,36201010,川内,徳島市川内町竹須賀１５１,一般局,徳島県,36
34.112500,134.530278,36201030,応神,徳島市応神町吉成字西吉成９１－１,一般局,徳島県,36
34.066667,134.563611,36201080,徳島,徳島市新蔵町３丁目８０,一般局,徳島県,36
34.030278,134.511944,36201110,多家良,徳島市丈六町八万免１４,一般局,??????,36
34.066111,134.560833,36201510,自排徳島,徳島市新蔵町１丁目６７,自排局,徳島県,36
34.170278,134.615556,36202010,鳴門,鳴門市撫養町立岩字七枚１２８,一般局,徳島県,36
34.003333,134.588333,36203010,小松島,小松島市堀川町１－２７,一般局,徳島県,36
33.925000,134.671389,36204010,阿南,阿南市領家町野神３１９,一般局,徳島県,36
33.881667,134.671389,36204020,大潟,阿南市大潟町２１０－２,一般局,徳島県,36
33.871944,134.611111,36204030,山口,阿南市桑野町上張１５,一般局,徳島県,36
33.828333,134.681667,36204040,椿,阿南市椿町浜１４,一般局,徳島県,36
33.932778,134.603056,36204050,大野,阿南市下大野町渡り上り２５８,一般局,徳島県,36
33.920556,134.642778,36204060,宝田,阿南市宝田町中新開６８－１３,一般局,徳島県,36
33.868889,134.643611,36204070,橘,阿南市橘町豊浜３６－１５,一般局,徳島県,36
33.821667,134.606944,36204080,福井,阿南市福井町高田１１７－１５,一般局,徳島県,36
33.959444,134.643333,36361010,那賀川,阿南市那賀川町黒地７０３－３,一般局,徳島県,36
33.942500,134.621389,36362010,羽ノ浦,阿南市羽ノ浦町岩脇字中地１１２－１,一般局,徳島県,36
33.854167,134.496944,36363010,鷲敷,那賀郡那賀町和喰郷字南川１１９,一般局,徳島県,36
33.773889,134.600000,36381010,由岐,海部郡美波町西の地字魚呑３４－１,一般局,徳島県,36
34.128889,134.592500,36401010,松茂,板野郡松茂町住吉字住吉開拓１８７,一般局,徳島県,36
34.115278,134.546111,36402010,北島,板野郡北島町鯛浜字向４３－４,一般局,徳島県,36
34.118333,134.499444,36403010,藍住,板野郡藍住町奥野字猪熊１７５－２,一般局,徳島県,36
34.062500,134.165278,36461010,脇町,美馬市脇町大字猪尻字建神社下南７３,一般局,徳島県,36
34.342222,134.063611,37201010,高松競輪場,高松市福岡町１－４－４６,一般局,高松市,37
34.327500,134.049167,37201510,栗林公園前,高松市栗林町１－６－２５,自排局,高松市,37
34.337222,134.050000,37201540,高松市役所,高松市番町１－１１－２２,自排局,高松市,37
34.314444,134.028333,37201550,鶴尾コミュニティセンター,高松市田村町３０３－１,自排局,高松市,37
34.286667,133.801111,37202010,丸亀市役所,丸亀市大手町２－３－１,一般局,香川県,37
34.276667,133.788889,37202030,城坤小学校,丸亀市今津町３４８,一般局,香川県,37
34.320278,133.858333,37203010,坂出市役所,坂出市久米町１－１８－２０,一般局,香川県,37
34.349444,133.850833,37203020,瀬居島,坂出市瀬居町西浦１６８８－４,一般局,香川県,37
34.362222,133.895278,37203040,相模坊神社,坂出市大屋富町２６２７－１,一般局,香川県,37
34.319722,133.890000,37203050,林田出張所,坂出市林田町６３６,一般局,香川県,37
34.224444,133.789444,37204010,善通寺市役所,善通寺市文京町２－１－１,一般局,香川県,37
34.124444,133.664444,37205010,観音寺市役所,観音寺市坂本町１－１－１,一般局,香川県,37
34.456667,133.998056,37364010,直島町役場,香川郡直島町１１２２－１,一般局,香川県,37
34.310000,133.826111,37386010,宇多津町役場,綾歌郡宇多津町1881,一般局,香川県,37
33.954444,133.283611,38205010,金子,新居浜市久保田町１－甲６０５,一般局,愛媛県,38
33.928333,133.282222,38205060,中村,新居浜市本郷３－１－１,一般局,愛媛県,38
33.971111,133.305833,38205080,高津,新居浜市宇高町２－１３－７,一般局,愛媛県,38
33.935000,133.306389,38205090,泉川,新居浜市星原町７－８,一般局,愛媛県,38
33.915000,133.195833,38206050,西条,西条市大町４４５－２,一般局,愛媛県,38
33.988056,133.589167,38208030,川之江,四国中央市上分町８００,一般局,愛媛県,38
33.961389,133.518889,38209030,寒川,四国中央市寒川町１８６０－２,一般局,愛媛県,38
33.976944,133.552778,38209050,伊予三島,四国中央市三島宮川４－６－５３,一般局,愛媛県,38
33.929167,133.082222,38212040,東予,西条市壬生川１１６,一般局,愛媛県,38
33.947500,133.420833,38302020,土居,四国中央市土居町入野１７８－１,一般局,愛媛県,38
33.896111,133.059722,38323010,丹原,西条市丹原町今井４－イ,一般局,愛媛県,38
33.895833,130.935833,40101010,門司局,北九州市門司区大里原町１２－１２,一般局,北九州市,40
33.868611,130.978889,40101020,松ヶ江局,北九州市門司区大字畑,一般局,北九州市,40
33.944722,130.971111,40101510,門司港自排局,北九州市門司区老松町３番地,自排局,北九州市,40
33.898056,130.810000,40103010,若松局,北九州市若松区本町三丁目１３－１,一般局,北九州市,40
33.893611,130.693611,40103120,江川局,北九州市若松区高須北1丁目1番,一般局,北九州市,40
33.891944,130.831667,40105010,戸畑局,北九州市戸畑区新池一丁目２－１,一般局,北九州市,40
33.883611,130.853889,40106010,北九州局,北九州市小倉北区井堀二丁目７－１,一般局,北九州市,40
33.880833,130.873056,40106020,小倉局,北九州市小倉北区大門一丁目６－４８,一般局,北九州市,40
33.869167,130.883056,40106510,三萩野自排局,北九州市小倉北区三萩野一丁目,自排局,北九州市,40
33.826944,130.941944,40107020,曽根局,北九州市小倉南区下曽根四丁目２３－３８,一般局,北九州市,40
33.818889,130.878056,40107040,企救丘局,北九州市小倉南区企救丘二丁目１－１,一般局,北九州市,40
33.860556,130.815000,40108010,八幡局,北九州市八幡東区中央一丁目２－４,一般局,北九州市,40
33.865000,130.802222,40108510,西本町自排局,北九州市八幡東区西本町一丁目２０－２,自排局,北九州市,40
33.858333,130.762778,40109010,黒崎局,北九州市八幡西区筒井町１５－１,一般局,北九州市,40
33.821944,130.740278,40109030,塔野局,北九州市八幡西区塔野一丁目３－１,一般局,北九州市,40
33.862778,130.768333,40109510,黒崎自排局,北九州市八幡西区黒崎三丁目,自排局,北九州市,40
33.632778,130.429444,40131010,東,福岡市東区筥松４－２１,一般局,福岡市,40
33.669444,130.440556,40131030,香椎,福岡市東区香住ヶ丘３－１０,一般局,福岡市,40
33.603889,130.430278,40132010,吉塚,福岡市博多区吉塚６－８,一般局,福岡市,40
33.587222,130.430833,40132520,比恵,福岡市博多区東比恵１－３,自排局,福岡市,40
33.601667,130.412500,40132530,千鳥橋,福岡市博多区千代５－１,自排局,福岡市,40
33.588333,130.400833,40133510,天神,福岡市中央区天神２－１２,自排局,福岡市,40
33.560833,130.434722,40134010,南,福岡市南区塩原１－２７,一般局,福岡市,40
33.550833,130.436111,40134510,大橋,福岡市南区大橋３－１８,自排局,福岡市,40
33.553889,130.383056,40135020,長尾,福岡市城南区長尾５－１－１,一般局,福岡市,40
33.580556,130.361944,40135510,西新,福岡市早良区西新３－１－１,自排局,福岡市,40
33.571944,130.374722,40135520,別府橋,福岡市城南区別府１－２２,自排局,福岡市,40
33.576667,130.358611,40137010,祖原,福岡市早良区祖原１５－７,一般局,福岡市,40
33.026667,130.448333,40202010,国設大牟田,大牟田市有明町２－３,一般局,環境省,40
33.020278,130.458333,40202050,七浦,大牟田市七浦町１５－１,一般局,大牟田市,40
33.030833,130.437778,40202060,新地,大牟田市新地町７,一般局,大牟田市,40
33.061111,130.477500,40202080,橘,大牟田市橘６６４－１,一般局,大牟田市,40
33.315833,130.510556,40203100,城南中学校,久留米市城南町１１－４,一般局,久留米市,40
33.300278,130.518889,40203060,えーるピア久留米,久留米市諏訪野町１８３０ー６,一般局,久留米市,40
33.254444,130.466667,40203070,三潴中学校,久留米市三潴町玉満2705,一般局,久留米市,40
33.741667,130.731944,40204010,直方,直方市津田町７－２０,一般局,福岡県,40
33.630278,130.775833,40206010,田川,田川市大字弓削田２８３８,一般局,福岡県,40
33.608056,131.133056,40214010,豊前,豊前市大字吉木９５５,一般局,福岡県,40
33.404167,130.582500,40216010,筑後小郡,小郡市大字井上字尾辺田４３４,一般局,環境省,40
33.802222,130.543333,40220010,宗像,宗像市大字東郷１－２－１,一般局,福岡県,40
33.510556,130.503333,40221010,太宰府,太宰府市大字向佐野字迎田３９,一般局,福岡県,40
33.560278,130.210833,40222010,糸島,前原市大字浦志２１６－１,一般局,福岡県,40
33.154167,130.418611,40563010,柳川,柳川市大字今古賀８－１,一般局,福岡県,40
33.772778,130.983056,40621010,苅田,京都郡苅田町富久町１丁目１９－１,一般局,福岡県,40
32.753333,129.862778,42201030,稲佐小学校,長崎市稲佐町１１－１,一般局,長崎市,42
32.703056,129.852778,42201280,小ケ倉支所,長崎市小ケ倉町２－２１－２,一般局,長崎市,42
32.774722,129.955000,42201300,東長崎支所,長崎市矢上町２４７－２,一般局,長崎市,42
32.748333,129.874167,42201510,長崎駅前,長崎市大黒町３－１,自排局,長崎市,42
32.746944,129.878333,42201530,長崎市役所,長崎市桜町６－３,自排局,長崎市,42
33.191667,129.668889,42202020,相浦,佐世保市木宮町３－１０,一般局,佐世保市,42
33.205833,129.722222,42202030,大野,佐世保市田原町１３－２９,一般局,佐世保市,42
33.132778,129.800556,42202140,早岐,佐世保市早岐１丁目６－３８,一般局,佐世保市,42
33.142500,129.781111,42202160,大塔,佐世保市大塔町２３９４－９,一般局,佐世保市,42
33.154167,129.756111,42202510,日宇,佐世保市日宇町５２２－１,自排局,佐世保市,42
33.156667,129.733889,42202520,福石,佐世保市福石町２０１－３,自排局,佐世保市,42
32.788889,130.374722,42203010,島原大気測定局,島原市新田町３４７－９,一般局,長崎県,42
32.909722,129.962778,42205010,大村大気測定局,大村市西三城町１２,一般局,長崎県,42
33.338333,129.712778,42208040,松浦志佐大気測定局,松浦市志佐町浦免８１２－１,一般局,長崎県,42
32.825556,129.850000,42308040,時津小学校大気測定局,西彼杵郡時津町野田郷２,一般局,長崎県,42
32.861389,129.789444,42309010,村松,長崎市村松郷字南小島７０４－１３,一般局,長崎県,42
32.918889,129.667778,42314020,雪浦大気測定局,西海市大瀬戸町雪浦上郷字宮小路141-2,一般局,長崎県,42
33.063056,129.860000,42322060,川棚大気測定局,東彼杵郡川棚町下組郷字開３０４－５,一般局,長崎県,42
33.259444,129.695278,42392020,吉井,佐世保市大渡免字大切１３６,一般局,佐世保市,42
32.800556,130.716389,43201510,水道町自排局,熊本市中央区水道町１３－２,自排局,熊本市,43
32.778889,130.747500,43201520,神水本町自排局,熊本市中央区神水本町９６７－１,自排局,熊本市,43
32.509722,130.604167,43202020,八代東高校,八代市鷹辻町,一般局,熊本県,43
32.513889,130.614722,43202030,八代八千把出張所,八代市古閑上町１９７,一般局,熊本県,43
32.499444,130.640556,43202520,八代自排局,八代市宮地町,自排局,熊本県,43
32.207778,130.391944,43205030,水俣丸島,水俣市丸島町３－１８７,一般局,熊本県,43
32.216667,130.401389,43205160,水俣保健所,水俣市八幡町３丁目２－７,一般局,熊本県,43
32.927778,130.560833,43206020,有明保健所,玉名市大字岩崎１００４－１,一般局,熊本県,43
32.457222,130.198056,43207010,天草保健所,天草市今釜新町３５３０,一般局,熊本県,43
33.018333,130.691111,43208010,山鹿保健福祉センター局,山鹿市山鹿,一般局,熊本県,43
32.976667,130.815278,43210010,菊池市役所,菊池市大字隈府字前田８７８番地１,一般局,熊本県,43
32.681389,130.666667,43211050,宇土運動公園,宇土市旭町３７５,一般局,熊本県,43
32.786111,130.801389,43443010,益城町保健福祉センター,上益城郡益城町惣領１４７０,一般局,熊本県,43
32.344167,130.506389,43481010,小田浦公民館,葦北郡芦北町小田浦１５７２－１,一般局,熊本県,43
32.511389,130.152778,43530010,五和手野,天草市大字井出３７６８－２,一般局,熊本県,43
32.509167,130.055833,43531010,苓北志岐,天草郡苓北町志岐４６０,一般局,熊本県,43
32.379167,129.996389,43532010,天草高浜,天草市字白鶴浜８９７－１５,一般局,熊本県,43
33.186944,131.626111,44201010,敷戸小学校測定局,大分市敷戸北町１２番１号,一般局,大分市,44
33.215000,131.594722,44201050,南大分中学校,大分市奥田７５４ー１,一般局,大分市,44
33.250556,131.684722,44201070,三佐小学校,大分市三佐５丁目６番地８号,一般局,大分市,44
33.244167,131.721389,44201080,大在小学校,大分市横田１丁目１５番地５８号,一般局,大分市,44
33.225000,131.753333,44201090,坂ノ市中学校,大分市南２丁目９番７２号,一般局,大分市,44
33.152500,131.660556,44201100,戸次中学校,大分市中戸次本町,一般局,大分市,44
33.240278,131.641667,44201130,東大分小学校,大分市萩原１丁目１０番３０号,一般局,大分市,44
33.211389,131.725278,44201340,丹生小学校,大分市佐野２６６２,一般局,大分市,44
33.185556,131.553889,44201350,西部清掃事業所,大分市大字横瀬４１６番地,一般局,大分市,44
33.207222,131.680278,44201360,大東中学校,大分市大字横尾２６６０番地,一般局,大分市,44
33.231667,131.595556,44201370,王子中学校,大分市南春日町６番１号,一般局,大分市,44
33.231667,131.610278,44201510,中央測定局,大分市金池町２丁目の１,自排局,大分市,44
33.196111,131.609722,44201520,宮崎測定局,大分市大字宮崎字スカワ783-3他,自排局,大分市,44
33.285000,131.486944,44202020,青山中学校,別府市大字別府字野口原３０８８－１,一般局,大分県,44
33.589167,131.197222,44203070,中津総合庁舎,中津市中央町１－５－１６,一般局,大分県,44
33.316667,130.933333,44204010,西部振興局,日田市城町１－１－１０,一般局,大分県,44
32.961389,131.910556,44205020,南部振興局,佐伯市長島町１丁目２番１号,一般局,大分県,44
33.123056,131.807500,44206010,臼杵市役所,臼杵市大字臼杵７２－１,一般局,大分県,44
33.069167,131.863333,44207010,津久見市役所,津久見市宮本町２０－１５,一般局,大分県,44
33.365556,131.530833,44341020,日出町鷹匠,速見郡日出町鷹匠町２４５８－１,一般局,大分県,44
33.243611,131.878611,44381010,佐賀関,大分市大字関２１７８番地,一般局,大分市,44
31.894444,131.420556,45201520,南宮崎自排局,宮崎市中村東３丁目２の２７,自排局,宮崎市,45
31.756944,131.082222,45202020,都城高専,都城市吉尾町４７３番地の１,一般局,宮崎県,45
31.717500,131.070833,45202510,都城自排局,都城市姫城町６街区２１,自排局,宮崎県,45
32.613611,131.671111,45203020,延岡商業高校,延岡市桜ヶ丘３丁目７１２２,一般局,宮崎県,45
32.547500,131.676667,45203090,延岡青朋高校,延岡市平原町２丁目６１８の２,一般局,宮崎県,45
32.575833,131.657222,45203100,延岡保健所,延岡市大貫町１丁目２８４０,一般局,宮崎県,45
32.570833,131.675000,45203520,新延岡自排局,延岡市出北町２丁目１４６７－２,自排局,宮崎県,45
31.603333,131.377500,45204010,日南保健所,日南市大字戸高６５７,一般局,宮崎県,45
31.588333,131.403889,45204030,油津小学校,日南市園田町１６２,一般局,宮崎県,45
32.435000,131.637778,45206020,大王谷小学校,日向市大字日知屋１２１０５の１,一般局,宮崎県,45
32.420000,131.625556,45206030,日向市立図書館,日向市春原町１丁目４７,一般局,宮崎県,45
32.421667,131.662222,45206080,細島公民館,日向市大字日知屋片ヶ浜３３７９,一般局,宮崎県,45
32.127222,131.508611,45401010,高鍋町健康づくりセンター,児湯郡高鍋町大字北高鍋２０４,一般局,宮崎県,45
31.581667,130.566667,46201270,環境保健センター,鹿児島市城南町１８,一般局,鹿児島県,46
31.829167,130.295833,46202520,薩摩川内,薩摩川内市御陵下町字八牟田2742番,自排局,鹿児島県,46
31.372500,130.854167,46203010,鹿屋,鹿屋市新栄町６４９,一般局,鹿児島県,46
31.755278,130.204167,46205010,羽島,いちき串木野市羽島５２１８,一般局,鹿児島県,46
31.733333,130.762778,46212010,霧島,霧島市国分中央五丁目８４２番地１,一般局,鹿児島県,46
31.613611,130.637778,46302010,桜島支所,鹿児島市桜島藤野町１４３９,一般局,鹿児島市,46
31.566111,130.615833,46302020,赤水,鹿児島市赤水１１９５－２,一般局,鹿児島市,46
31.372500,130.544722,46321010,喜入,鹿児島市喜入町６２２７,一般局,鹿児島市,46
31.468889,131.101111,46466010,志布志,志布志市志布志町志布志３２４０－１４,一般局,鹿児島県,46
31.358611,131.001667,46482010,東串良,肝属郡東串良町新川西３６３２,一般局,鹿児島県,46
34.442778,132.536667,34102020,福木小学校,広島市東区馬木９－１－２,一般局,広島市,34
34.388889,132.426111,34104510,庚午,広島市西区己斐本町３－１３,自排局,広島市,34
38.319722,140.895833,04210010,七北田,仙台市泉区七北田字東裏９０,一般局,仙台市,04
34.448889,132.473611,34105010,安佐南区役所,広島市安佐南区古市１－３３－１４,一般局,広島市,34
34.458333,132.410000,34105020,伴小学校,広島市安佐南区沼田町大字伴６１５３,一般局,広島市,34
34.450556,132.473611,34105510,古市小学校,広島市安佐南区古市２－２１－１,自排局,広島市,34
35.581667,139.583333,14136510,宮前平駅前,川崎市宮前区土橋２－１－１,自排局,川崎市,14
38.306944,140.847222,04105520,長命,仙台市泉区長命ケ丘２－２２,自排局,仙台市,04
38.334167,140.889722,04105530,将監,仙台市泉区将監４－４,自排局,仙台市,04
34.409722,132.453611,34201010,三篠小学校,広島市西区三篠町１－９－２５,一般局,広島市,34
34.375556,132.470556,34201020,皆実小学校,広島市南区皆実町１－１５－３２,一般局,広島市,34
34.369444,132.386111,34201250,井口小学校,広島市西区井口２－１３－１,一般局,広島市,34
34.515278,132.512500,34201260,可部小学校,広島市安佐北区可部４－９－１,一般局,広島市,34
34.392222,132.461111,34201510,紙屋町,広島市中区基町１１－１,自排局,広島市,34
34.376667,132.472778,34201520,比治山,広島市南区比治山本町１２,自排局,広島市,34
35.071111,133.794444,33584510,久世,真庭市目木177-1,自排局,岡山県,33
37.581944,140.466944,07210010,二本松,二本松市金色424-1,一般局,福島県,07
37.197778,140.341667,07466010,矢吹,西白河郡矢吹町一本木101,一般局,福島県,07
36.492222,140.585833,08202200,日立南部,日立市下土木内町６１７,一般局,茨城県,08
36.636389,138.183056,20201030,環境保全研究所,長野市安茂里米村１９７８,一般局,長野県,20
36.663611,138.223056,20201070,吉田,長野市吉田１丁目２－４０,一般局,長野市,20
36.574444,138.152222,20201110,篠ノ井,長野市篠ノ井会７１６,一般局,長野市,20
36.230556,137.947222,20202050,松本,松本市島立１０２０,一般局,長野県,20
36.228056,137.958611,20202510,松本渚交差点,松本市渚３丁目４５－４,自排局,松本市,20
36.396111,138.263056,20203010,上田,上田市材木町１－２－６,一般局,長野県,20
35.511389,137.831944,20205010,飯田,飯田市追手町２－６７８,一般局,長野県,20
36.036389,138.109167,20206010,諏訪,諏訪市上川１－１６４４－１０,一般局,長野県,20
36.650833,138.313333,20207010,須坂,須坂市須坂山崎８１２－２,一般局,長野県,20
36.326389,138.436667,20208020,小諸,小諸市与良町6-5-5,一般局,長野県,20
35.836389,137.935000,20209010,伊那,伊那市荒井３４９７,一般局,長野県,20
36.741111,138.370833,20211010,中野,中野市中央１－４－１９,一般局,長野県,20
36.500833,137.863056,20212160,大町,大町市大町１０５８－２,一般局,長野県,20
36.225278,138.473056,20217020,佐久,佐久市跡部６５－１,一般局,長野県,20
35.839167,137.688056,20421030,木曽,木曽郡木曽町福島2757-1,一般局,長野県,20
33.373333,130.500000,41203010,鳥栖,鳥栖市宿町７２１－３５,一般局,佐賀県,41
33.379167,130.528611,41203050,曽根崎,鳥栖市曽根崎町１４９８－３,自排局,佐賀県,41
33.253056,130.310833,41201030,佐賀,佐賀市高木町１５－３０,一般局,佐賀県,41
33.416944,129.921667,41202060,竹木場,唐津市竹木場５６１６－１,一般局,佐賀県,41
33.283333,130.113333,41204010,多久,多久市北多久町大字小侍４８－３,一般局,佐賀県,41
33.271389,129.888611,41205080,大坪,伊万里市大坪町２８６３－１,一般局,佐賀県,41
33.306667,129.814444,41205090,山代,伊万里市山代町久原１６３７－４,一般局,佐賀県,41
33.194167,130.027778,41206010,武雄,武雄市武雄町大字昭和２７－６,一般局,佐賀県,41
33.099722,130.102222,41207010,鹿島,鹿島市納富分２７４４－１,一般局,佐賀県,41
33.421667,130.519722,41341010,基山,基山町大字宮浦１０３７－１,一般局,佐賀県,41
36.549444,136.609722,17201090,西南部,金沢市新保本１－１４９,一般局,金沢市,17
36.553333,136.680000,17201110,小立野,金沢市小立野５－１１－１,一般局,金沢市,17
36.563889,136.654722,17201290,中央,金沢市長町１－１０－３５,一般局,金沢市,17
36.586389,136.640278,17201300,駅西,金沢市西念３－４－２５,一般局,金沢市,17
36.594444,136.607222,17201310,西部,金沢市寺中町へ－６０,一般局,金沢市,17
36.591389,136.680000,17201320,北部,金沢市小坂町北９５,一般局,金沢市,17
36.568889,136.658333,17201550,武蔵,金沢市武蔵町１５－１,自排局,金沢市,17
36.557222,136.655000,17201560,片町,金沢市片町２－２－２０,自排局,金沢市,17
37.045278,136.961389,17202190,七尾,七尾市小島町二３３－４,一般局,石川県,17
37.077778,136.930833,17202200,石崎,七尾市石崎町香島１丁目９６,一般局,七尾市,17
37.051667,137.009722,17202240,大田,七尾市大田町赤崎,一般局,石川県,17
36.405278,136.464444,17203140,小松,小松市園町ホ８２,一般局,石川県,17
36.299167,136.318333,17206010,大聖寺,加賀市大聖寺南町二２１,一般局,石川県,17
36.889722,136.781389,17207010,羽咋,羽咋市旭町ユ２０,一般局,石川県,17
36.516389,136.563056,17208010,松任,白山市馬場２－７,一般局,石川県,17
36.466944,136.578611,17208020,山島,白山市山島台４ー８１,一般局,石川県,17
36.443333,136.457778,17321010,根上,能美市浜町ワ７２－１,一般局,石川県,17
36.472500,136.478333,17342010,美川,白山市湊町３－５,一般局,石川県,17
36.664167,136.731111,17361010,津幡,河北郡津幡町加賀爪ニ３,一般局,石川県,17
36.631667,136.633611,17365010,内灘,河北郡内灘町緑台１－２７２,一般局,石川県,17
37.057222,136.896389,17401010,田鶴浜,七尾市田鶴浜町ニ１２０,一般局,石川県,17
36.962222,136.920833,17404010,鹿島,鹿島郡中能登町井田イ-２７,一般局,石川県,17
37.120278,137.001944,17405010,能登島,七尾市能登島向田町馬付谷内３８,一般局,石川県,17
42.648056,141.611389,01213020,双葉,苫小牧市双葉町３－２３,一般局,苫小牧市,01
42.658889,141.631667,01213050,明野公園,苫小牧市明野新町３－２,一般局,苫小牧市,01
42.626389,141.727778,01213070,勇払,苫小牧市字勇払２７－２３,一般局,苫小牧市,01
42.626944,141.540833,01213510,糸井,苫小牧市しらかば町5丁目21番地,自排局,苫小牧市,01
42.667778,141.691944,01213220,沼ノ端公園,苫小牧市沼ノ端中央５－４,一般局,苫小牧市,01
42.827500,141.676111,01224010,日の出,千歳市日の出２－２０５５－１,一般局,北海道,01
42.836944,141.647222,01224020,富丘,千歳市富丘４－１３,一般局,千歳市,01
42.794722,141.738056,01224050,駒里,千歳市駒里２２３１－２,一般局,北海道,01
42.786944,141.605000,01224060,若草,千歳市若草４－１３,一般局,千歳市,01
42.548333,141.359167,01578010,白老,白老郡白老町大町１－６,一般局,北海道,01
42.743611,141.764722,01579020,遠浅,勇払郡安平町遠浅７５１－１,一般局,北海道,01
42.718889,141.888333,01581010,厚真,勇払郡厚真町新町１２７－１０,一般局,北海道,01
42.642500,141.853333,01581020,上厚真,勇払郡厚真町字上厚真１８－１,一般局,北海道,01
42.595556,141.915000,01582020,田浦,勇払郡むかわ町田浦２０９－１,一般局,北海道,01
42.576389,141.929722,01582030,鵡川,勇払郡むかわ町福住２丁目１８０番地,一般局,北海道,01
40.809167,140.919444,02201070,堤小学校,青森市松原２－４－４,一般局,青森市,02
40.539722,141.488889,02203050,根岸小学校,八戸市河原木根岸１－２,一般局,青森県,02
40.557222,141.451667,02203220,桔梗野小学校,八戸市市川町尻引前山３１－２,一般局,青森県,02
40.513056,141.481111,02203240,八戸小学校,八戸市売市小待１５０,一般局,青森県,02
40.506667,141.494722,02203510,六日町,八戸市六日町１０,自排局,青森県,02
40.965278,141.378056,02411010,尾駮小学校,上北郡六ヶ所村大字尾駮字野附４８３,一般局,青森県,02
35.073611,136.789722,23427510,国設飛島自動車交通環境測定所,海部郡飛島村飛島新田字竹之郷５,自排局,環境省,23
34.709444,135.426389,28202580,国設尼崎自動車交通環境測定所,尼崎市東本町４丁目４７番地先,自排局,環境省,28
40.811389,140.736944,02201080,甲田小学校,青森市金沢１－６－１,一般局,青森市,02
40.606111,140.480000,02202060,弘前市立第一中学校,弘前市和徳町３６３－１３,一般局,青森県,02
40.581667,140.477500,02202510,文京小学校,弘前市中野１－１－１,自排局,青森県,02
40.822500,140.678056,02201090,新城中央小学校,青森市新城平岡１４１－１,一般局,青森市,02
40.648611,140.597778,02204010,スポカルイン黒石,黒石市ぐみの木３－６５,一般局,青森県,02
40.778889,140.468333,02205010,五所川原第三中学校,五所川原市広田藤浦１０５－１,一般局,青森県,02
40.753889,140.593889,02364510,大栄小学校,青森市浪岡大字大釈迦前田５－２,自排局,青森市,02
42.755278,141.801944,01579030,早来,勇払郡安平町早来北町１２－２,一般局,北海道,01
39.760833,140.764444,05201010,将軍野,秋田市土崎港北二丁目１８番１８号,一般局,秋田市,05
39.700000,140.107222,05201030,茨島,秋田市茨島１－４－７１,一般局,秋田市,05
39.679444,140.130278,05201040,仁井田,秋田市仁井田本町四丁目５番２０号,一般局,秋田市,05
39.791944,140.125278,05201060,上新城,秋田市上新城五十丁字大村屋敷２２,一般局,秋田市,05
39.760833,140.065000,05201080,土崎,秋田市土崎港西五丁目３番１号,一般局,秋田市,05
39.717778,140.105833,05201120,山王,秋田市山王１－１－１,一般局,秋田市,05
39.677222,140.085278,05201130,新屋,秋田市新屋扇町１３番３４号,一般局,秋田市,05
39.787222,140.065833,05201340,堀川,秋田市飯島字堀川８４－１３０,一般局,秋田市,05
39.713611,140.145556,05201370,広面,秋田市広面字樋ノ上２８－３,一般局,秋田市,05
39.700000,140.107222,05201530,自排茨島,秋田市茨島１－４－７１,自排局,秋田市,05
40.207222,140.021944,05202020,能代西,能代市盤若町３－１,一般局,秋田県,05
40.167500,140.121667,05202040,檜山,能代市檜山字赤館４２－１,一般局,秋田県,05
39.307222,140.579722,05203020,横手,横手市旭川１－３－４６,一般局,秋田県,05
40.268889,140.577222,05204020,大館,大館市金坂後６,一般局,秋田県,05
39.380000,140.057500,05205010,本荘,由利本荘市桜小路１,一般局,秋田県,05
39.885000,139.851667,05206060,船川,男鹿市船川港船川字泉台３－２,一般局,秋田県,05
39.447778,140.482778,05208010,大曲,大仙市大曲上栄町１３－６２,一般局,秋田県,05
42.510000,141.300000,01578030,北吉原,白老郡白老町字北吉原８６,一般局,北海道,01
35.950833,139.879722,12208510,国設野田自動車交通環境測定,野田市宮崎新田１３７－１,自排局,環境省,12
35.827778,139.383056,11225510,国設入間自動車交通環境測定所,入間市高倉５－４９１,自排局,環境省,11
36.085000,138.037778,20204510,岡谷インターチェンジ,岡谷市今井１６６０－３,自排局,長野県,20
36.546389,138.128611,20216510,更埴インターチェンジ,千曲市粟佐１０６４－４,自排局,長野県,20
34.023611,133.801111,36483010,池田,三好市池田町字マチ2551-1,一般局,徳島県,36
35.349444,136.626111,21202510,大垣自動車排出ガス測定局,大垣市禾森町４－４９,自排局,岐阜県,21
35.454167,137.033889,21211010,美濃加茂測定局,美濃加茂市新池町３－４－１,一般局,岐阜県,21
35.738611,139.729444,13116530,明治通り西巣鴨,豊島区西巣鴨２－３９－５,自排局,東京都,13
35.766944,139.829167,13121020,足立区綾瀬,足立区綾瀬６－２３,一般局,東京都,13
35.545000,139.337500,14209040,田名,相模原市中央区田名４９８７－６,一般局,相模原市,14
43.084444,141.349167,01102510,北１９条,札幌市北区北１９西２,自排局,札幌市,01
33.582778,130.255000,40135060,元岡,福岡市西区田尻東１－１７－１,一般局,福岡市,40
33.571111,130.318889,40135530,石丸,福岡市西区石丸２－２５,自排局,福岡市,40
33.568889,130.278611,40135540,今宿,福岡市西区今宿青木字草場１３７,自排局,福岡市,40
34.738611,134.826944,28210020,尾上,加古川市尾上町長田５１９,一般局,加古川市,28
34.723889,134.846111,28210030,別府,加古川市別府町西町１,一般局,加古川市,28
34.789722,134.835278,28210050,東神吉,加古川市東神吉長神吉1590ー１,一般局,加古川市,28
34.803333,134.875000,28210190,平荘,加古川市平荘町山角266,一般局,加古川市,28
34.818056,134.822222,28210180,志方公民館,加古川市志方町志方町1758-3,一般局,加古川市,28
39.654444,141.158333,03201070,津志田,盛岡市津志田１４－３７－２,一般局,岩手県,03
39.720278,141.138611,03201550,上田,盛岡市上田４－１－１,自排局,岩手県,03
39.144167,141.140000,03204010,水沢,奥州市水沢区大手町５－５,一般局,岩手県,03
39.390000,141.115833,03205010,花城,花巻市花城町１－４１,一般局,岩手県,03
39.286944,141.111389,03206010,芳町,北上市芳町２－８,一般局,岩手県,03
40.192222,141.763333,03207010,八日町,久慈市八日町１－１,一般局,岩手県,03
38.935833,141.126667,03209010,竹山町,一関市竹山町７－５,一般局,岩手県,03
38.932222,141.118611,03209510,三反田,一関市山目字三反田１５２－１,自排局,岩手県,03
39.265833,141.845556,03211070,新町,釜石市釜石市新町６－５０,一般局,岩手県,03
39.781667,141.140556,03305010,巣子,岩手郡滝沢村滝沢字巣子７３３－４,一般局,岩手県,03
35.492778,134.230556,31201020,栄町交差点,鳥取市栄町５０２,自排局,鳥取県,31
35.434722,133.344167,31202020,米子保健所,米子市東福原１－１－４５,一般局,鳥取県,31
35.438611,133.844167,31203020,倉吉保健所,倉吉市東巌城町２,一般局,鳥取県,31
33.387500,133.289722,39206020,旧須崎高等学校,須崎市下分甲391-2,一般局,高知県,39
33.399444,133.320833,39206080,押岡公園,須崎市押岡字山下,一般局,高知県,39
33.546944,133.432778,39381030,伊野合同庁舎,吾川郡いの町１３８１,一般局,高知県,39
26.589167,127.989444,47209080,名護,名護市大中２－１３－１,一般局,沖縄県,47
26.358889,127.813889,47211050,沖縄,沖縄市美原１－６－２８,一般局,沖縄県,47
26.206389,127.694167,47201140,那覇,那覇市与儀１－３－２１,一般局,那覇市,47
38.390833,140.277500,06206010,寒河江西根,寒河江市西根字石川西３５５,一般局,山形県,06
38.473611,140.399167,06208010,村山楯岡笛田,村山市楯岡笛田3-2-1,一般局,山形県,06
38.110833,140.034444,06209010,長井高野,長井市高野町２－３－１,一般局,山形県,06
35.011389,135.960833,25206510,自排草津,草津市草津３丁目１４－７５,自排局,滋賀県,25
38.271111,140.781944,04101010,広瀬,仙台市青葉区下愛子字二本松４０,一般局,仙台市,04
35.430000,137.047778,21214510,可児自動車排出ガス測定局,可児市今渡１６８０,自排局,岐阜県,21
35.891944,136.227500,18203100,味真野大気,越前市上真柄町４４－６,一般局,武生市,18
36.032222,136.231389,18201540,自排福井,福井市下六条町１７字立原２番,自排局,福井市,18
35.629167,136.065000,18202530,自排敦賀,敦賀市古田刈６６号１３０３番地,自排局,敦賀市,18
35.959167,136.190833,18207520,自排丹南,鯖江市水落町２丁目３０－１,自排局,鯖江市,18
35.218889,137.089722,23204510,瀬戸市陶原町,瀬戸市陶原町５－６０,自排局,愛知県,23
35.244167,136.782500,23220510,稲沢市役所,稲沢市稲府町1,自排局,愛知県,23
34.881111,136.999444,23209510,碧南市文化会館,碧南市源氏神明町１,自排局,愛知県,23
35.207778,136.906111,23103020,城北つばさ高校,名古屋市北区福徳町広瀬島３５０－４,一般局,名古屋市,23
34.712222,137.346944,23201030,大崎,豊橋市大崎町字柿ノ木１６,一般局,豊橋市,23
34.781944,137.441667,23201040,石巻,豊橋市石巻町字西浦１６,一般局,豊橋市,23
34.721944,137.450833,23201170,二川,豊橋市大岩町字東郷内１１１－１,一般局,豊橋市,23
34.698889,137.390000,23201060,野依,豊橋市野依町字諏訪149-1,一般局,豊橋市,23
34.766389,137.393889,23201540,今橋,豊橋市今橋町１,自排局,豊橋市,23
35.151667,137.165833,23211050,北部局(加納町),豊田市加納町西股７５,一般局,豊田市,23
35.079722,137.192778,23211060,東部局(宝来町),豊田市宝来町４－７５８－１０,一般局,豊田市,23
34.958889,137.145000,23202550,矢作,岡崎市矢作町字馬乗１１０－１,自排局,岡崎市,23
35.917778,136.176944,18203110,武生北,越前市家久町１０５－１３,一般局,武生市,18
36.591667,138.191111,20201510,小島田,長野市小島田町８０５－１１,自排局,長野市,20
40.605556,141.206111,02206030,三本木中学校,十和田市西十三番町５－２４,一般局,青森県,02
40.691389,141.380000,02207020,岡三沢町内会館,三沢市岡三沢七丁目１６－１,一般局,青森県,02
41.281944,141.211111,02208030,苫生小学校,むつ市金曲一丁目５－１０,一般局,青森県,02
35.700278,139.682778,13114510,山手通り東中野,中野区中央2-18-21,自排局,東京都,13
35.573056,139.686389,13111540,環八通り千鳥,大田区千鳥３丁目３－３１先,自排局,東京都,13
34.758889,136.141944,24206020,伊賀緑ヶ丘中学校,伊賀市緑ヶ丘本町４１５３,一般局,三重県,24
31.931111,131.370556,45201530,生目小学校自排局,宮崎市大字浮田２７５１番地１４,自排局,宮崎市,45
37.936667,140.895000,04362010,山元,亘理郡山元町高瀬字合戦原１００－１,一般局,宮城県,04
36.448056,140.507778,08342010,那珂,那珂市菅谷８９１－２,一般局,茨城県,08
34.850833,135.217500,28109520,北神八多,神戸市北区八多町中,一般局,神戸市,28
35.425000,133.333333,31202520,米子市役所前局,米子市加茂町１－１,自排局,鳥取県,31
34.398333,133.071944,34204150,三原宮浦公園,三原市宮浦２丁目１－１,一般局,広島県,34
38.055000,139.409167,15310010,中条,胎内市東本町１６－５７,一般局,新潟県,15
37.672222,138.925833,15213010,燕,燕市白山町2丁目7番27号,一般局,新潟県,15
37.367500,138.579167,15205060,柏崎,柏崎市三和町5-55,一般局,新潟県,15
37.057778,138.868611,15463010,六日町,南魚沼市六日町620-2,一般局,新潟県,15
34.814167,137.351389,23207510,豊川市桜町,豊川市桜町１丁目３－１０９,自排局,愛知県,23
35.175833,136.791944,23422510,あま市稲荷公園,あま市篠田稲荷７６,自排局,愛知県,23
26.146111,127.665556,47210060,糸満,糸満市西崎町３－１７９,一般局,沖縄県,47
24.803056,125.287500,47206020,平良,宮古島市平良字東仲宗根４７６,一般局,沖縄県,47
24.340278,124.155000,47207020,石垣,石垣市字真栄里４３８,一般局,沖縄県,47
26.355833,127.971667,47322010,与那城,うるま市与那城桃原２１９,一般局,沖縄県,47
34.700000,135.743889,29201020,西部,奈良市百楽園４－１－１,一般局,奈良市,29
34.712222,135.801389,29201030,朱雀,奈良市朱雀６－１０－１,一般局,奈良市,29
34.671944,135.837778,29201060,飛鳥,奈良市紀寺町７８５,一般局,奈良市,29
35.124444,137.018889,23230510,日進市上納池スポーツ公園,日進市浅田町西田面47-1,自排局,愛知県,23
35.250278,136.908333,23342510,豊山町栄児童遊園,西春日井郡豊山町大字豊場字栄８０,自排局,愛知県,23
35.235833,136.958333,23206530,春日井市勝川小学校,春日井市若草通2丁目１－１,自排局,愛知県,23
34.756944,134.822778,28210530,鳩里,加古川市加古川町備後３３２－１,自排局,加古川市,28
26.215556,127.685278,47201580,松尾,那覇市牧志１－２－２４,自排局,那覇市,47
26.266667,127.723889,47208510,牧港,浦添市牧港５－６－５,自排局,沖縄県,47
26.225833,127.765278,47329010,西原,中頭郡西原町字与那城１３５,一般局,沖縄県,47
35.318056,139.345556,14203050,花水小学校,平塚市龍城ヶ丘５－６２,一般局,平塚市,14
35.376944,139.362778,14203030,神田小学校,平塚市田村６－１－１,一般局,平塚市,14
40.268611,141.294167,03213020,荷渡,二戸市石切所字荷渡６－３,一般局,岩手県,03
35.913611,139.726944,11110010,さいたま市城南,さいたま市岩槻区大字笹久保577,一般局,さいたま市,11
35.955556,139.680278,11110510,さいたま市西原自排,さいたま市岩槻区大字岩槻３７５０,自排局,さいたま市,11
36.760833,137.019722,16202520,高岡大坪,高岡市大坪町,自排局,富山県,16
34.162222,135.279444,30202180,消防東出張所,海南市野上中１６６－１,一般局,和歌山県,30
33.975556,133.341667,38205100,多喜浜,新居浜市多喜浜１４２ー１５,一般局,愛媛県,38
36.567500,139.942222,09201580,平出,宇都宮市平出町１２６０,自排局,栃木県,09
35.002778,135.890278,25201090,膳所,大津市由美浜１－１,一般局,大津市,25
35.388611,136.266944,25203030,長浜,長浜市分木町８－５,一般局,滋賀県,25
34.955833,135.908889,25201540,石山,大津市石山寺３－１１－２０,自排局,大津市,25
35.002222,135.866111,25201510,逢坂,大津市音羽台６ー１,自排局,大津市,25
35.068333,135.879444,25201060,下阪本,大津市下阪本４－１５－１２,一般局,大津市,25
34.998611,135.838056,25201070,藤尾,大津市稲葉台２８番地先,一般局,大津市,25
35.113889,135.918611,25201080,堅田,大津市本堅田３－２５－２６,一般局,大津市,25
35.523333,139.695278,14131540,日進町,川崎市川崎区日進町２３－１,自排局,川崎市,14
35.589444,139.586111,14136010,宮前平小学校,川崎市宮前区宮前平３－１４－１,一般局,川崎市,14
35.544167,139.685833,14132060,幸スポーツセンター,川崎市幸区戸手本町１－１１－３,一般局,川崎市,14
34.980278,137.164167,23202560,鴨田,岡崎市鴨田町字広元３０６,自排局,岡崎市,23
35.128611,136.781389,23425510,蟹江町八幡,海部郡蟹江町八幡２丁目13,自排局,愛知県,23
34.440278,133.259167,34207320,松永小学校,福山市広島県,一般局,福山市,34
32.848056,130.753889,43201140,楡木,熊本市北区楡木3-9-1,一般局,熊本市,43
32.816667,130.702778,43201150,京町,熊本市中央区京町本丁1-14,一般局,熊本市,43
36.546389,136.600833,17344520,野々市,野々市市御経塚5丁目84番地,自排局,石川県,17
34.859722,135.681944,27210030,楠葉,枚方市楠葉並木２－２９－３,一般局,枚方市,27
34.829722,135.687500,27210510,招提,枚方市招提南町３－１０２２－１,自排局,枚方市,27
34.795833,135.626667,27210520,中振,枚方市南中振３－２９４－８,自排局,枚方市,27
34.503056,135.564722,27201600,美原丹上,堺市美原区丹上３２９－１,自排局,堺市,27
34.504444,135.410556,27206030,泉大津市役所,泉大津市東雲町９－１２,一般局,大阪府,27
34.639722,134.052778,33201220,五明,岡山市東区西大寺五明１８６,一般局,岡山市,33
34.709722,134.081111,33201540,西祖,岡山市東区西祖１の４及び１の５,自排局,岡山市,33
33.550278,133.598889,39201350,介良,高知市介良丙１０００－２,一般局,高知市,39
33.545556,133.557778,39201360,南新田町,高知市南新田町５－６６,一般局,高知市,39
33.540000,133.489722,39201530,朝倉,高知市若草南町523-3,自排局,高知市,39
35.335556,139.308056,14203040,旭小学校,平塚市河内３０７,一般局,平塚市,14
31.596111,130.557222,46201010,鹿児島市役所,鹿児島市山下町11番1号,一般局,鹿児島市,46
31.521389,130.517778,46201130,谷山支所,鹿児島市谷山中央四丁目４９２７番地,一般局,鹿児島市,46
31.557500,130.665833,46201220,有村,鹿児島市有村町12番地4,一般局,鹿児島市,46
31.592222,130.707778,46201260,黒神,鹿児島市黒神町2554番地,一般局,鹿児島市,46
31.563889,130.554444,46201520,鴨池,鹿児島市鴨池二丁目31番15号,自排局,鹿児島市,46
36.444444,139.906667,09301510,上三川町上蒲生歩道橋,河内郡上三川町しらさぎ２－１－１１,自排局,栃木県,09
35.725833,139.927500,12203110,市川本八幡局,市川市八幡３－２４－１,一般局,市川市,12
32.523333,130.085833,43531020,苓北町坂瀬川地区,天草郡苓北町坂瀬川字小崎2865,一般局,熊本県,43
32.468889,130.040000,43531030,苓北町都呂々地区,天草郡苓北町都呂々字古里1211-1,一般局,熊本県,43
32.448889,130.079444,43531040,苓北町木場地区,天草郡苓北町都呂々字陰平6118-2,一般局,熊本県,43
32.384167,130.126389,43215010,天草市宮地岳地区,天草市宮地岳町5518-1,一般局,熊本県,43
32.382222,130.198333,43215020,天草市新和町地区,天草市新和町小宮地字荒新開5208-105,一般局,熊本県,43
32.324167,130.071667,43215030,天草市河浦町地区,天草市河浦町河浦796-4,一般局,熊本県,43
32.424167,130.012778,43215040,天草市天草町下田地区,天草市天草町下田北1388-1,一般局,熊本県,43
34.946389,138.330000,22201530,自排丸子,静岡市葵区丸子5491-2,自排局,静岡市,22
33.851944,132.758611,38201510,本町消防,松山市本町６－６－１,自排局,愛媛県,38
33.813611,132.704167,38201090,垣生小学校,松山市西垣生町７４７,一般局,愛媛県,38
33.841667,132.727500,38201080,味生,松山市北斎院町７１２,一般局,愛媛県,38
33.888333,132.732778,38201030,和気,松山市太山寺町１１０６－１,一般局,愛媛県,38
33.819722,132.728333,38201020,富久町,松山市富久町２７３,一般局,愛媛県,38
35.021389,136.671667,24344020,川越南小学校,三重郡川越町大字高松２５８,一般局,三重県,24
35.020000,136.417778,24341810,御在所,三重郡菰野町大字菰野字御在所岳一の谷８５０３－１,,三重県,24
37.916944,139.227222,15201420,豊栄,新潟市北区朝日町４丁目１番２号,一般局,新潟市,15
37.871944,139.102222,15201430,亀田,新潟市江南区亀田緑町１丁目２番８号,一般局,新潟市,15
37.763889,139.016667,15201570,白根,新潟市南区白根１４０７番地,自排局,新潟市,15
39.555556,141.172222,03321010,日詰, 紫波郡紫波町日詰字東裏  ８５－１ ,一般局,岩手県,03
39.192778,141.175000,03215010,江刺, 奥州市江刺区大通り  ７－１３ ,一般局,岩手県,03
36.371667,139.353611,10203510,桐生自排局,桐生市広沢町６－４１１－２,自排局,群馬県,10
36.302500,139.207778,10204510,伊勢崎自排,伊勢崎市茂呂町２－２１６９－１,自排局,群馬県,10
36.283056,139.377222,10205510,太田自排局,太田市飯塚町１６８４,自排局,群馬県,10
36.235278,139.520556,10207510,館林自排,館林市小桑原町９４９（地上）,自排局,群馬県,10
36.492222,138.011667,10208510,渋川自排,渋川市渋川１４１３－６,自排局,群馬県,10
36.381944,139.041944,10201510,国設前橋自動車交通環境測定所,前橋市元総社町３３５元総社第二団地先国道１７号,自排局,群馬県,10
34.232778,135.145278,30201080,湊小学校,和歌山市湊２丁目１７－４０,一般局,和歌山県,30
34.124167,135.186111,30301050,加茂川小学校,海南市下津町小松原２９,一般局,和歌山県,30
34.986944,136.999444,23210040,刈谷市寿町,刈谷市寿町1-409,一般局,愛知県,23
34.210278,129.289444,42209010,対馬大気測定局,対馬市厳原町宮谷224,一般局,長崎県,42
33.750000,129.690833,42210010,壱岐,壱岐市郷ノ浦町本村触505-5,一般局,長崎県,42
32.696389,128.840000,42211010,五島,五島市福江町504-1,一般局,長崎県,42
35.404722,136.038889,25212010,高島,高島市今津町南新保地先,一般局,滋賀県,25
35.586389,139.256389,14209050,津久井,相模原市緑区中野633,一般局,相模原市,14
34.171389,130.934167,35201250,豊浦局,下関市豊浦町大字小串９１番３,一般局,下関市,35
36.147222,136.100000,18201060,石橋,福井市石橋町３２字イノ上２５４－１,一般局,福井県,18
35.130833,136.903889,23109520,熱田神宮公園,名古屋市熱田区旗屋一丁目10-45,自排局,名古屋市,23
34.537500,135.563611,27147010,美原,堺市美原区小平尾３９０番地,一般局,堺市,27
34.959722,135.971389,25201570,上田上,大津市上田上牧町字恋ノ山７６０－２,自排局,大津市,25
38.228056,139.474167,15212010,村上,村上市塩町５１３９番１,一般局,新潟県,15
37.986389,138.394444,15224010,佐渡,佐渡市畑野甲５１－１,一般局,新潟県,15
37.759722,138.883333,15108010,巻,新潟市西蒲区巻甲６３５番地,一般局,新潟市,15
43.028611,141.340278,01101020,山鼻,札幌市中央区南２３西１３,一般局,札幌市,01
35.635833,138.558056,19201510,国母自排,甲府市国母６－５－１,自排局,甲府市,19
34.299722,133.816389,37202070,青の山,丸亀市土器町東５－６９６,一般局,香川県,37
35.661667,139.321667,13201510,甲州街道八木町,八王子市八木町８,自排局,八王子市,13
35.671111,139.292778,13201060,八王子市大楽寺町,八王子市大楽寺町４１９－１,一般局,八王子市,13
35.625556,139.291389,13201040,八王子市館町,八王子市館町１０９７－６６,一般局,八王子市,13
35.786111,139.868889,13122020,葛飾区水元公園,葛飾区水元公園３－２,一般局,東京都,13
35.743333,139.653611,13120030,練馬区練馬,練馬区練馬２－２７－２８,一般局,東京都,13
35.651389,139.593611,13112020,世田谷区成城,世田谷区成城９－２５－１,一般局,東京都,13
35.719444,139.734722,13105530,春日通り大塚,文京区大塚３－５－１,自排局,東京都,13
36.599722,139.940556,09304010,河内測定局,宇都宮市下岡本町２１４５番地１４,一般局,宇都宮市,09
34.662500,135.215000,28110010,港島,神戸市中央区港島中町８丁目,一般局,神戸市,28
34.705278,135.233611,28102040,灘浜,神戸市灘区新在家南町５丁目,一般局,神戸市,28
34.910556,134.738056,28201390,香寺,姫路市香寺町中屋１４,一般局,姫路市,28
34.369167,131.184444,35211010,長門土木建築事務所,長門市東深川１８７５－１,一般局,山口県,35
34.408611,131.395833,35204010,萩健康福祉センター,萩市江向川添沖田５３１－１,一般局,山口県,35
34.863056,135.598611,27207020,高槻北,高槻市大蔵司2-51-2,一般局,高槻市,27
34.100000,135.116111,30204030,有田市初島公民館,有田市初島町浜１３６８－３,一般局,和歌山県,30
34.669722,134.980556,28111510,西自動車,神戸市西区曙町１０７０,自排局,神戸市,28
34.695556,135.200833,28110510,中部自動車,神戸市中央区小野柄通２丁目１番１９号（中央消防署）,自排局,神戸市,28
35.216389,136.857500,23233510,清須市阿原,清須市阿原九丁田１９２－１,自排局,愛知県,23
37.933889,139.089722,15102510,東山の下,新潟市東区藤見町１丁目２３番５７号,自排局,新潟市,15
35.340000,139.449444,14205050,明治市民センター,藤沢市辻堂新町１－１１－２３,一般局,藤沢市,14
34.807222,135.490556,27203520,豊中市千里,豊中市新千里西町1-1-3,自排局,豊中市,27
36.298889,139.110000,10464010,県央水質浄化センター,佐波郡玉村町上之手１８４６－１,一般局,群馬県,10
34.688056,132.541944,34369010,北広島町,山県郡北広島町壬生,一般局,広島県,34
38.290278,140.876389,04101510,北根,仙台市青葉区北根一丁目１１,自排局,仙台市,04
33.349444,130.690278,40203110,田主丸中学校,久留米市田主丸町田主丸６５－１,一般局,久留米市,40
35.679444,139.913889,12203120,市川行徳駅前,市川市湊新田2-4,一般局,市川市,12
34.918889,135.494167,27321010,豊能町役場,豊能郡豊能町余野４１４番地の１,一般局,大阪府,27
36.711944,138.283611,20201150,豊野,長野市豊野町豊野８１４,一般局,長野市,20
36.731111,138.982778,10449010,みなかみ町カルチャーセンター,利根郡みなかみ町上牧１７３５,一般局,群馬県,10
36.332222,138.916944,10211510,安中自排,安中市中宿７８３－１,自排局,群馬県,10
32.876111,130.877222,43403010,大津町引水,菊池郡大津町引水１２３,一般局,熊本県,43
32.652778,130.808333,43444010,甲佐町岩下,上益城郡甲佐町岩下１５７番地１９,一般局,熊本県,43
32.516111,130.432778,43212010,上天草市合津,上天草市松島町合津4276-387,一般局,熊本県,43
33.785278,135.339722,30391010,みなべ町晩稲グラウンド,日高郡みなべ町晩稲３６,一般局,和歌山県,30
34.791389,133.610833,33209010,高梁,高梁市落合町近似２８６－１,一般局,岡山県,33
35.032222,134.155556,33215010,美作,美作市北山３８５－１,一般局,岡山県,33
34.777778,134.098611,33213020,熊山,赤磐市釣井２０９－１,一般局,岡山県,33
34.834444,133.761667,33681010,吉備高原,加賀郡吉備中央町竹部２１６４－３,一般局,岡山県,33
34.668056,135.597500,27227030,東大阪市環境衛生検査センター,東大阪市西岩田３－３－２,自排局,東大阪市,27
35.625833,135.073333,26212010,京丹後,京丹後市峰山町丹波８５５,一般局,京都府,26
36.384167,139.876944,09216010,下野市南河内庁舎,下野市田中６８１－１,一般局,栃木県,09
36.266667,139.650833,09203030,栃木市藤岡公民館,栃木市藤岡町藤岡810,一般局,栃木県,09
36.293889,139.489167,09202520,足利市久保田公園,足利市久保田町923,自排局,栃木県,09
33.440556,129.816944,41202160,肥前,唐津市肥前町大字入野字音ノ元甲1684,一般局,佐賀県,41
33.273889,129.841944,41401020,西有田,西松浦郡有田町下山谷字佐後乙3563,一般局,佐賀県,41
33.101389,129.982222,41209010,嬉野,嬉野市嬉野町大字下宿乙1408番地,一般局,佐賀県,41
33.427778,130.280278,41201040,三瀬,佐賀市三瀬村三瀬2970,一般局,佐賀県,41
34.759167,135.503611,27205060,吹田市垂水,吹田市垂水町３－３２－５０,一般局,吹田市,27
34.811667,135.516944,27205080,吹田市北消防署,吹田市藤白台１－１－５０,一般局,吹田市,27
34.756389,135.521389,27205530,吹田簡易裁判所,吹田市寿町１－５－５,自排局,吹田市,27
34.627222,135.578056,27212520,久宝寺緑地,八尾市西久宝寺６５１,自排局,八尾市,27
35.108611,135.455000,26213010,南丹,南丹市園部町黒田１－４,一般局,京都府,26
34.635278,135.638333,27212030,水越,八尾市水越３－７０,一般局,八尾市,27
34.612778,135.588889,27212510,太子堂,八尾市南太子堂２－４－７,自排局,八尾市,27
34.911667,137.506389,23221010,新城消防署,新城市平井字新栄８３,一般局,愛知県,23
33.550556,133.621944,39204070,稲生,南国市稲生衣笠３０７５－２,一般局,高知県,39
35.814722,139.483333,11208090,所沢市中富,所沢市中富１６１４－２,一般局,所沢市,11
35.372778,139.383889,14321010,寒川町役場,高座郡寒川町宮山１６５,一般局,神奈川県,14
37.023611,140.376389,07481010,棚倉,東白川郡棚倉町大字棚倉字舘ヶ丘７３－４,一般局,福島県,07
34.708889,135.262778,28101040,住吉南,神戸市東灘区住吉南町1丁目,一般局,神戸市,28
35.922500,139.572500,11205040,さいたま市指扇,さいたま市西区指扇4226,一般局,さいたま市,11
35.913889,139.593889,11205530,さいたま市三橋自排,さいたま市西区三橋5-190,自排局,さいたま市,11
35.951667,139.606944,11205020,さいたま市宮原,さいたま市北区宮原町4-129,一般局,さいたま市,11
35.940000,139.664167,11205030,さいたま市春里,さいたま市見沼区小深作268-19,一般局,さいたま市,11
35.905833,139.673889,11205050,さいたま市片柳,さいたま市見沼区御蔵551,一般局,さいたま市,11
35.937222,139.645556,11205540,さいたま市大和田自排,さいたま市見沼区東大宮1-100-1,自排局,さいたま市,11
35.839444,139.665278,11204040,さいたま市根岸,さいたま市南区根岸2-20-13,一般局,さいたま市,11
35.836944,139.630000,11204520,さいたま市曲本自排,さいたま市南区曲本1-21-1,自排局,さいたま市,11
35.830833,139.658611,11204530,さいたま市辻自排,さいたま市南区辻8-27-25,自排局,さいたま市,11
34.327778,136.828333,24215010,鵜方,志摩市阿児町鵜方３１５３－１,一般局,三重県,24
32.972500,131.580556,44212010,豊肥保健所,豊後大野市三重町市場９３４番地２,一般局,大分県,44
33.821389,132.763333,38201530,朝生田,松山市朝生田町７丁目８３９,自排局,松山市,38
34.302222,133.962778,37201080,国分寺,高松市国分寺町新居１７１０-１,一般局,高松市,37
35.036944,136.596944,24202370,西朝明中学校,四日市市北山町１１６９,一般局,四日市市,24
34.961667,136.636944,24202510,納屋,四日市市蔵町４－１７,自排局,四日市市,24
35.001389,136.658056,24202530,北消防署,四日市市富田二丁目４－１５,自排局,四日市市,24
40.782778,140.238611,02321010,鰺ヶ沢町舞戸,西津軽郡鰺ヶ沢町大字舞戸町字鳴戸３８４－３７,一般局,青森県,02
40.527500,141.521667,02203260,八戸特別地域気象観測所,八戸市大字湊町字舘鼻６７,一般局,青森県,02
32.744167,129.875833,42201540,中央橋,長崎市江戸町10-100,自排局,長崎市,42
32.842222,130.016389,42204060,諫早,諌早市馬渡町13,一般局,長崎県,42
35.642222,139.735833,13103010,港区高輪,港区高輪一丁目6番,一般局,東京都,13
35.750000,139.558333,13217010,西東京市下保谷,西東京市下保谷一丁目４番,一般局,東京都,13
37.200833,139.781667,07368010,南会津,南会津郡南会津町田島字天道沢甲２５４２－７,一般局,福島県,07
37.659722,139.873056,07208090,喜多方,喜多方市字桜が丘１－１２９－１,一般局,福島県,07
35.255278,136.960000,23206270,春日井市朝宮公園,春日井市朝宮町４丁目１－２,一般局,愛知県,23
36.331667,139.581944,09204020,県安蘇庁舎,佐野市堀米町607,一般局,栃木県,09
36.507222,138.515278,10425010,嬬恋村運動公園,吾妻郡嬬恋村大笹１,一般局,群馬県,10
31.981111,130.997778,45205010,小林保健所,小林市小林市堤字金鳥居３０２０の１３,一般局,宮崎県,45
34.558611,135.530833,27143510,中環石原,堺市東区石原町１－２０－１,自排局,堺市,27
35.355278,139.354722,14203100,大野公民館,平塚市東真土2-12-1,一般局,平塚市,14
33.459722,129.955278,41202200,唐津,唐津市二夕子　1-7-83,一般局,佐賀県,41
39.644167,141.949167,03202050,横町, 宮古市横町  ５－１ ,一般局,岩手県,03
39.095278,141.704722,03203090,猪川町, 大船渡市猪川町字前田  ６－１ ,一般局,岩手県,03
35.251944,136.239444,25202090,彦根,彦根市西今町800,一般局,滋賀県,25
37.003333,140.918611,07204720,中央台,いわき市中央台鹿島１丁目55,一般局,いわき市,07
37.001944,140.848889,07204730,常磐,いわき市常磐湯本町栄田11,一般局,いわき市,07
37.093611,140.896111,07204740,四倉,いわき市四倉町狐塚字松橋20,一般局,いわき市,07
34.964444,136.165000,25209010,甲賀,甲賀市水口町水口６２００,一般局,滋賀県,25
32.024167,131.473889,45201040,佐土原,宮崎市佐土原町下田島20660,一般局,宮崎市,45
31.932778,131.410833,45201050,祇園,宮崎市宮崎市祇園２丁目１３５,一般局,宮崎市,45
31.838889,131.301111,45201060,田野,宮崎市田野町甲２８１８,一般局,宮崎市,45
35.800556,139.703056,11203030,川口市横曽根,川口市宮町１６－１,一般局,川口市,11
35.829444,139.764722,11203050,川口市新郷,川口市東本郷１３０１－１,一般局,川口市,11
35.833056,139.686389,11203060,川口市芝,川口市芝樋ノ爪２－９,一般局,川口市,11
35.841389,139.751667,11203510,川口市安行,川口市安行慈林３５６,自排局,川口市,11
35.853333,139.731389,11203530,川口市神根,川口市神戸４６１,自排局,川口市,11
34.802778,137.556944,22135010,三ヶ日,浜松市北区三ヶ日町三ヶ日500番地の1,一般局,浜松市,22
43.157778,141.283611,01302010,樽川,石狩市樽川500-33,一般局,北海道,01
43.509722,141.918611,01226010,職業訓練校,砂川市焼山60-2,一般局,北海道,01
43.426667,141.875000,01424010,奈井江,空知郡奈井江町字奈井江147,一般局,北海道,01
34.311667,135.601111,30203010,伊都総合庁舎,橋本市市脇４丁目５番８号,一般局,和歌山県,30
34.796944,135.807500,26343010,井手,綴喜郡井手町井手野神３８番地,一般局,京都府,26
34.765278,136.026389,26367010,南山城,相楽郡南山城村北大河原中谷１２－５２,一般局,京都府,26
36.071389,139.099167,11362010,皆野,秩父郡皆野町皆野1420-1,一般局,埼玉県,11
35.979444,139.461389,11346510,川島自排,比企郡川島町かわじま２－１９,自排局,埼玉県,11
35.308889,132.900556,32209010,雲南合同庁舎一般環境大気測定局,雲南市木次町里方５３１－１,一般局,島根県,32
37.295278,136.954444,17204010,輪島,輪島市三井町洲衛１０部１１番１,一般局,石川県,17
35.554444,140.173056,12105010,泉谷小学校,千葉市緑区おゆみ野中央４－３,一般局,千葉市,12
34.212778,135.186389,30201300,宮前小学校,和歌山市北中島1丁目7-4,一般局,和歌山市,30
45.119722,141.209167,01518950,国設利尻酸性雨,利尻郡利尻町仙法志神磯193,一般局,環境省,01
41.251667,140.349722,02307950,国設竜飛岬酸性雨,東津軽郡外ヶ浜町三厩宇鉄山国有林84林班り2小班,一般局,環境省,02
38.249722,138.400000,15224950,国設佐渡関岬酸性雨,佐渡市関204,一般局,環境省,15
27.091667,142.216111,13421950,国設小笠原酸性雨,小笠原村父島旭山地内,一般局,環境省,13
36.696667,137.798056,20485950,国設八方尾根酸性雨,北安曇郡白馬村北城4488-227,一般局,環境省,20
35.572222,136.693889,21215950,国設伊自良湖酸性雨,山県市長滝釜ヶ谷27-7-3,一般局,環境省,21
36.288611,133.185000,32528950,国設隠岐酸性雨,隠岐郡隠岐の島町北方福浦1700,一般局,環境省,32
34.681667,131.799722,32204950,国設蟠竜湖酸性雨,益田市高津町イ2340-3,一般局,環境省,32
33.379167,132.934722,39405950,国設檮原酸性雨,高岡郡檮原町太郎川3757-2,一般局,環境省,39
34.241667,129.285833,42209950,国設対馬酸性雨,対馬市大字厳原北里大多羅（上見坂公園）,一般局,環境省,42
32.606389,128.656667,42211950,国設五島酸性雨,五島市大宝郷字ヅンナン辻1148,一般局,環境省,42
26.866111,128.248611,47301950,国設辺戸岬酸性雨,国頭郡国頭村大字宜名真字長根原1000,一般局,環境省,47
32.088889,130.351389,46208010,出水,出水市昭和町18－18,一般局,鹿児島県,46
31.416667,130.322500,46220010,南さつま,南さつま市加世田川畑２６４８,一般局,鹿児島県,46
35.531944,139.703611,14131100,川崎市役所第４庁舎,川崎市川崎区宮本町3-3,一般局,川崎市,14
34.527778,133.739722,33202400,監視センター,倉敷市水島東千鳥町１－５０,一般局,倉敷市,33
34.672222,135.800278,29201530,自排柏木,奈良市柏木町519-17,自排局,奈良市,29
43.770278,142.364722,01204010,中央,旭川市６条通９丁目,一般局,旭川市,01
43.770278,142.364722,01204011,中央,旭川市６条通９丁目,自排局,旭川市,01
43.794444,142.330556,01204050,北門,旭川市錦町２１丁目,一般局,旭川市,01
43.738889,142.411667,01204150,東光,旭川市東光１６条７丁目,一般局,旭川市,01
43.810278,142.436667,01204160,永山,旭川市永山３条１９丁目,一般局,旭川市,01
33.780556,132.699167,38401010,松前,伊予郡松前町大字北黒田875,一般局,愛媛県,38
33.621389,132.504167,38421010,大屋,大洲市長浜町今坊乙1874-3,一般局,愛媛県,38
34.063333,132.999444,38202100,今治旭,今治市旭町1-4-9,一般局,愛媛県,38
33.643889,132.913056,38380010,久万高原,上浮穴郡久万町菅生2番耕地280-38,一般局,愛媛県,38
33.461667,132.421944,38204010,八幡浜,八幡浜市北浜1-3-37,一般局,愛媛県,38
33.227778,132.570556,38203010,宇和島,宇和島市天神町7-1,一般局,愛媛県,38
32.705556,131.305278,45441010,高千穂保健所,西臼杵郡高千穂町大字三田井１０８６－１,一般局,宮崎県,45
36.528611,136.651667,17201650,山科,金沢市山科1丁目地内,自排局,金沢市,17
33.506667,133.902500,39203010,安芸,安芸市西浜95-1,一般局,高知県,39
32.980278,132.905278,39210010,中村,四万十市具同5179,一般局,高知県,39
34.289444,134.248333,37206010,東讃保健福祉事務所,さぬき市津田町津田930番地2,一般局,香川県,37
32.747222,130.200833,42213010,小浜大気測定局,雲仙市小浜町北本町550,一般局,長崎県,42
34.067500,134.358611,36205010,吉野川,吉野川市鴨島町鴨島106-2,一般局,徳島県,36
33.969167,134.363333,36342010,神山,名西郡神山町神領字西上角25-4,一般局,徳島県,36
34.197778,136.063889,29451010,大台,吉野郡上北山村小橡根返948－1,一般局,奈良県,29
42.634444,141.604444,01213610,市役所,苫小牧市旭町4-5-6,自排局,北海道,01
41.826389,140.748333,01202080,北美原小学校,函館市北美原１－９－１６,一般局,函館市,01
41.778333,140.735556,01202100,中部小学校,函館市新川町30-26,一般局,函館市,01
41.818611,140.746111,01202560,美原,函館市美原３－３０－３,自排局,函館市,01
35.551389,139.419167,14153510,古淵,相模原市南区古淵３－１１４－１,自排局,相模原市,14
34.837222,135.614444,27207030,庄所,高槻市南庄所町3,一般局,高槻市,27
35.282778,139.670278,14201530,小川町交差点,横須賀市小川町3番地,自排局,横須賀市,14
34.328056,134.121389,37201090,東部運動公園,高松市高松町1336-6,一般局,高松市,37
34.233611,134.035000,37201100,南消防署香川分署,高松市香川町東上947-1,一般局,高松市,37
33.305000,130.373889,41210010,神埼,神埼市神埼町枝ヶ里349,一般局,佐賀県,41
33.184722,130.149444,41425010,白石,杵島郡白石町大字福田2371番地,一般局,佐賀県,41
37.439444,137.268889,17205020,珠洲,珠洲市野々江町シ部３２,一般局,石川県,17
33.720833,135.984722,30207010,新宮高校,新宮市神倉3-2-39,一般局,和歌山県,30
42.322500,140.997778,01205020,御前水,室蘭市御前水町2－2,一般局,室蘭市,01
42.336667,141.016111,01205310,輪西,室蘭市輪西町3－2－33,一般局,室蘭市,01
42.341944,141.027222,01205540,汐見,室蘭市東町4－29,自排局,室蘭市,01
42.347500,141.031111,01205320,東,室蘭市寿町1－9,一般局,室蘭市,01
42.374167,140.941944,01205060,白鳥台,室蘭市白鳥台5－35,一般局,室蘭市,01
35.254167,139.049722,14382010,箱根町宮城野,足柄下郡箱根町宮城野626-11,一般局,神奈川県,14
32.980556,130.467222,43204200,荒尾運動公園,荒尾市川登1868-12,一般局,熊本県,43
36.027222,139.716111,11442010,宮代,南埼玉郡宮代町学園台4-1,一般局,埼玉県,11
34.873333,137.816389,22137010,天竜測定局,浜松市天竜区二俣町二俣481番地,一般局,浜松市,22
33.179444,131.426389,44213010,中部保健所由布保健部,由布市庄内町柿原337-2,一般局,大分県,44
33.557500,131.731667,44214010,国東高等学校,国東市国東町鶴川1974,一般局,大分県,44
43.139444,141.156111,01203090,銭函,小樽市見晴町3-26,一般局,小樽市,01
43.181944,141.021944,01203100,勝納,小樽市勝納町10-1,一般局,小樽市,01
43.210556,140.936944,01203110,塩谷,小樽市塩谷2-10-5,一般局,小樽市,01
43.196667,140.994722,01203520,駅前交差点,小樽市稲穂2-22-8,自排局,小樽市,01
34.745833,135.765556,26366030,精華,相楽郡精華町光台1丁目7,一般局,京都府,26
33.622222,130.526389,40342010,篠栗,糟屋郡篠栗町大字田中１番地１,一般局,福岡県,40
33.611667,130.700000,40205010,飯塚,飯塚市平恒54番地24,一般局,福岡県,40
33.360000,130.817500,40228010,朝倉,朝倉市杷木池田483番地1,一般局,福岡県,40
33.197778,130.594444,40210010,八女,八女市立花町谷川1156番地,一般局,福岡県,40
43.021111,144.363889,01206290,昭和小学校,釧路市昭和中央3丁目12番2号,一般局,北海道,01
32.229444,131.145278,45403010,西米良村健康増進広場,児湯郡西米良村西米良村大字村所,一般局,宮崎県,45
34.695278,137.279722,23621071,田原市童浦小学校,田原市浦町西側85-1,一般局,愛知県,23
35.514167,133.235556,31204010,境港市誠道町,境港市誠道町２２５－１,一般局,鳥取県,31
35.503611,134.236111,31201040,鳥取県庁西町分庁舎,鳥取市西町１丁目４０１,一般局,鳥取県,31
35.445000,139.357778,14212530,厚木市水引,厚木市水引２－３－１,自排局,神奈川県,14
34.485278,134.191111,37322010,小豆総合事務所,小豆郡土庄町渕崎甲２０７９－５,一般局,香川県,37
32.903889,130.693611,43201160,北区役所,熊本市北区植木町岩野238-1,一般局,熊本市,43
32.770833,130.771111,43201170,秋津,熊本市東区秋津3丁目1856,一般局,熊本市,43
32.766111,130.626389,43201180,中島,熊本市西区中島町371-2,一般局,熊本市,43
32.726111,130.713889,43201190,城南町,熊本市南区城南町高482,一般局,熊本市,43
33.277222,130.309167,41201540,兵庫,佐賀市兵庫町大字西渕1960-4,自排局,佐賀県,41
35.728611,140.825556,12202090,銚子栄,銚子市栄町２－２－１,一般局,千葉県,12
40.824167,140.752500,02201520,橋本小学校,青森市橋本１丁目９－１７,自排局,青森市,02
35.791389,139.962500,12207020,松戸五香,松戸市五香西２－４０－１０,一般局,松戸市,12
35.823056,139.928889,12207030,松戸二ツ木,松戸市二ツ木４０－１,一般局,松戸市,12
34.721389,135.134444,28109010,南五葉,神戸市北区南五葉3-1-1,一般局,神戸市,28
43.081667,141.333333,01102020,国設札幌大気環境測定所,札幌市北区北19条西12丁目,一般局,環境省,01
35.433056,136.657778,21218010,本巣,本巣市下真桑1000,一般局,岐阜県,21
43.798056,143.889722,01208510,北見市常磐町大気測定局舎,北見市常磐町2-1-8,自排局,北海道,01
33.596111,133.689722,39212010,土佐山田,香美市土佐山田町山田1128-1,一般局,高知県,39
42.923889,143.195833,01207090,帯広市役所,帯広市西５条南７丁目１番地,一般局,北海道,01
38.268611,140.763889,04101020,宮総局,仙台市青葉区下愛子字観音堂5,一般局,仙台市,04
38.259167,140.671111,04104010,秋総局,仙台市太白区秋保町長袋大原４５?１,一般局,仙台市,04
35.935000,139.765556,11222030,越谷市千間台西,越谷市千間台西4-2,一般局,越谷市,11
34.555278,135.510278,27146010,金岡南,堺市北区金岡町１１８２－１,一般局,堺市,27
34.950833,138.418056,22102010,南中学校測定局,静岡市駿河区宮竹2-11-1,一般局,静岡市,22
35.002778,138.447222,22103010,清水第七中学校測定局,静岡市清水区草薙3-9-20,一般局,静岡市,22
34.728889,137.786389,22132540,浜松環状線,浜松市東区安新町１８１－２,自排局,浜松市,22
34.635278,136.513333,24204510,国道２３号松阪三雲,松阪市中道町３４５,自排局,三重県,24
31.944167,131.429167,45201540,大宮小学校自動車排出ガス測定局,宮崎市下北方町新地849番地,自排局,宮崎市,45
35.175833,138.599722,22210170,南松野,富士市南松野１４７６,一般局,富士市,22
34.535556,133.761944,33202410,福田,倉敷市福田町古新田５３３?１,一般局,倉敷市,33
34.647500,133.823056,33202420,庄,倉敷市上東１１１７－１,一般局,倉敷市,33
43.016944,144.262778,01206280,釧路高専,釧路市大楽毛西2-32,一般局,北海道,01
35.800000,139.912500,12207520,松戸上本郷（車）,松戸市上本郷２２３４－５,自排局,松戸市,12
35.884167,137.207222,21220010,下呂,下呂市萩原町羽根２６０５－１,一般局,岐阜県,21
34.713889,135.277222,28101520,魚崎自動車,神戸市東灘区魚崎南町６丁目１０,自排局,神戸市,28
34.883889,135.402222,28217530,川西市　川西文珠橋局,川西市清流台16番2号,自排局,川西市,28
34.919722,137.291111,23202030,東部樫山,岡崎市樫山町字山ノ神21-31,一般局,岡崎市,23
34.865556,135.649444,27207040,梶原,高槻市梶原１－５,一般局,高槻市,27
37.766667,140.479167,07201510,松浪町,福島市松浪町3-46,自排局,福島市,07
33.719167,130.463611,40223510,古賀,古賀市大字鹿部４０１－３,自排局,福岡県,40
35.709444,139.922778,12203550,市川稲荷木（車）, 市川市稲荷木２丁目４番  稲荷木２丁目公園内 ,自排局,市川市,12
35.492222,136.917778,21205360,関,関市西本郷通４丁目２番９号,一般局,岐阜県,21
34.791667,135.520833,27205090,吹田市高野台,吹田市高野台４－５－１,一般局,大阪府,27
34.880556,136.831389,23216110,常滑浄化センター,常滑市新開町６－３－２,一般局,愛知県,23
34.658333,136.371389,24201020,林業研究所,津市白山町二本木3769-1,一般局,三重県,24
34.523889,136.643611,24442010,明星小学校,多気郡明和町明星1553,一般局,三重県,24
